[{"city":"New York","lat":40.6943,"lng":-73.9249},{"city":"Los Angeles","lat":34.1141,"lng":-118.4068},{"city":"Chicago","lat":41.8375,"lng":-87.6866},{"city":"Miami","lat":25.784,"lng":-80.2101},{"city":"Dallas","lat":32.7935,"lng":-96.7667},{"city":"Houston","lat":29.786,"lng":-95.3885},{"city":"Philadelphia","lat":40.0077,"lng":-75.1339},{"city":"Atlanta","lat":33.7628,"lng":-84.422},{"city":"Washington","lat":38.9047,"lng":-77.0163},{"city":"Boston","lat":42.3188,"lng":-71.0852},{"city":"Phoenix","lat":33.5722,"lng":-112.0892},{"city":"Detroit","lat":42.3834,"lng":-83.1024},{"city":"Seattle","lat":47.6211,"lng":-122.3244},{"city":"San Francisco","lat":37.7558,"lng":-122.4449},{"city":"San Diego","lat":32.8313,"lng":-117.1222},{"city":"Minneapolis","lat":44.9635,"lng":-93.2678},{"city":"Brooklyn","lat":40.6501,"lng":-73.9496},{"city":"Tampa","lat":27.9945,"lng":-82.4447},{"city":"Denver","lat":39.762,"lng":-104.8758},{"city":"Queens","lat":40.7498,"lng":-73.7976},{"city":"Baltimore","lat":39.3051,"lng":-76.6144},{"city":"Las Vegas","lat":36.2333,"lng":-115.2654},{"city":"St. Louis","lat":38.6359,"lng":-90.2451},{"city":"Portland","lat":45.5371,"lng":-122.65},{"city":"Riverside","lat":33.9381,"lng":-117.3949},{"city":"Orlando","lat":28.4773,"lng":-81.337},{"city":"Sacramento","lat":38.5677,"lng":-121.4685},{"city":"San Juan","lat":18.3985,"lng":-66.061},{"city":"San Antonio","lat":29.4632,"lng":-98.5238},{"city":"San Jose","lat":37.3012,"lng":-121.848},{"city":"Pittsburgh","lat":40.4397,"lng":-79.9763},{"city":"Cincinnati","lat":39.1413,"lng":-84.506},{"city":"Manhattan","lat":40.7834,"lng":-73.9662},{"city":"Cleveland","lat":41.4764,"lng":-81.6805},{"city":"Indianapolis","lat":39.7771,"lng":-86.1458},{"city":"Austin","lat":30.3005,"lng":-97.7522},{"city":"Kansas City","lat":39.1238,"lng":-94.5541},{"city":"Columbus","lat":39.9862,"lng":-82.9855},{"city":"Charlotte","lat":35.2083,"lng":-80.8303},{"city":"Virginia Beach","lat":36.7335,"lng":-76.0435},{"city":"Bronx","lat":40.8501,"lng":-73.8662},{"city":"Milwaukee","lat":43.0642,"lng":-87.9675},{"city":"Providence","lat":41.823,"lng":-71.4187},{"city":"Jacksonville","lat":30.3322,"lng":-81.6749},{"city":"Salt Lake City","lat":40.7776,"lng":-111.9311},{"city":"Nashville","lat":36.1715,"lng":-86.7842},{"city":"Raleigh","lat":35.8324,"lng":-78.6429},{"city":"Memphis","lat":35.1087,"lng":-89.9663},{"city":"Louisville","lat":38.1663,"lng":-85.6485},{"city":"Richmond","lat":37.5295,"lng":-77.4756},{"city":"Buffalo","lat":42.9018,"lng":-78.8487},{"city":"Oklahoma City","lat":35.4676,"lng":-97.5136},{"city":"Bridgeport","lat":41.1918,"lng":-73.1954},{"city":"New Orleans","lat":30.0687,"lng":-89.9288},{"city":"Fort Worth","lat":32.7817,"lng":-97.3474},{"city":"Hartford","lat":41.7661,"lng":-72.6834},{"city":"Tucson","lat":32.1541,"lng":-110.8787},{"city":"Honolulu","lat":21.3294,"lng":-157.846},{"city":"McAllen","lat":26.2252,"lng":-98.2467},{"city":"Omaha","lat":41.2627,"lng":-96.0529},{"city":"El Paso","lat":31.8476,"lng":-106.43},{"city":"Albuquerque","lat":35.1054,"lng":-106.6465},{"city":"Rochester","lat":43.168,"lng":-77.6162},{"city":"Sarasota","lat":27.3387,"lng":-82.5432},{"city":"Fresno","lat":36.783,"lng":-119.7939},{"city":"Tulsa","lat":36.1283,"lng":-95.9042},{"city":"Allentown","lat":40.5961,"lng":-75.4756},{"city":"Dayton","lat":39.7805,"lng":-84.2003},{"city":"Birmingham","lat":33.5279,"lng":-86.7971},{"city":"Charleston","lat":32.8168,"lng":-79.9687},{"city":"Cape Coral","lat":26.6443,"lng":-81.9957},{"city":"Columbia","lat":34.0378,"lng":-80.9036},{"city":"Concord","lat":37.9722,"lng":-122.0016},{"city":"Colorado Springs","lat":38.8674,"lng":-104.7605},{"city":"Springfield","lat":42.1155,"lng":-72.5395},{"city":"Knoxville","lat":35.9692,"lng":-83.9496},{"city":"Baton Rouge","lat":30.442,"lng":-91.1311},{"city":"Ogden","lat":41.2279,"lng":-111.9682},{"city":"Grand Rapids","lat":42.9619,"lng":-85.6562},{"city":"Albany","lat":42.6664,"lng":-73.7987},{"city":"Bakersfield","lat":35.3529,"lng":-119.0359},{"city":"Mission Viejo","lat":33.6096,"lng":-117.6551},{"city":"New Haven","lat":41.3113,"lng":-72.9246},{"city":"Worcester","lat":42.2705,"lng":-71.8079},{"city":"Provo","lat":40.2457,"lng":-111.6457},{"city":"Akron","lat":41.0798,"lng":-81.5219},{"city":"Palm Bay","lat":27.9631,"lng":-80.6593},{"city":"Des Moines","lat":41.5725,"lng":-93.6105},{"city":"Murrieta","lat":33.5719,"lng":-117.1909},{"city":"Mesa","lat":33.4015,"lng":-111.7178},{"city":"Staten Island","lat":40.5834,"lng":-74.1496},{"city":"Wichita","lat":37.6895,"lng":-97.3443},{"city":"Toledo","lat":41.6638,"lng":-83.5827},{"city":"Harrisburg","lat":40.2752,"lng":-76.8843},{"city":"Port St. Lucie","lat":27.2796,"lng":-80.3884},{"city":"Long Beach","lat":33.7977,"lng":-118.167},{"city":"Reno","lat":39.5497,"lng":-119.8483},{"city":"Madison","lat":43.0822,"lng":-89.393},{"city":"Little Rock","lat":34.7256,"lng":-92.3577},{"city":"Greenville","lat":34.8354,"lng":-82.3646},{"city":"Denton","lat":33.2175,"lng":-97.1418},{"city":"Spokane","lat":47.6671,"lng":-117.433},{"city":"Oakland","lat":37.7904,"lng":-122.2166},{"city":"Lancaster","lat":40.042,"lng":-76.3012},{"city":"Poughkeepsie","lat":41.695,"lng":-73.9211},{"city":"Boise","lat":43.6005,"lng":-116.2308},{"city":"Winston-Salem","lat":36.1029,"lng":-80.261},{"city":"Syracuse","lat":43.0407,"lng":-76.1437},{"city":"Augusta","lat":33.3645,"lng":-82.0708},{"city":"Stockton","lat":37.9765,"lng":-121.3109},{"city":"Palm Coast","lat":29.5389,"lng":-81.2457},{"city":"Chattanooga","lat":35.066,"lng":-85.2481},{"city":"Kissimmee","lat":28.3041,"lng":-81.4169},{"city":"Durham","lat":35.9792,"lng":-78.9022},{"city":"Arlington","lat":32.6998,"lng":-97.125},{"city":"Victorville","lat":34.5277,"lng":-117.3536},{"city":"Aurora","lat":39.7083,"lng":-104.7237},{"city":"Modesto","lat":37.6375,"lng":-121.0028},{"city":"Lancaster","lat":34.6935,"lng":-118.1753},{"city":"Fayetteville","lat":36.0714,"lng":-94.1661},{"city":"Scranton","lat":41.4044,"lng":-75.6649},{"city":"Oxnard","lat":34.1964,"lng":-119.1815},{"city":"Youngstown","lat":41.0993,"lng":-80.6463},{"city":"Indio","lat":33.7346,"lng":-116.2346},{"city":"Pensacola","lat":30.4413,"lng":-87.1911},{"city":"Anaheim","lat":33.839,"lng":-117.8574},{"city":"Bonita Springs","lat":26.3558,"lng":-81.7859},{"city":"Greensboro","lat":36.0956,"lng":-79.8271},{"city":"Huntsville","lat":34.6981,"lng":-86.6412},{"city":"Corpus Christi","lat":27.7254,"lng":-97.3767},{"city":"Fort Wayne","lat":41.0888,"lng":-85.1436},{"city":"Fayetteville","lat":35.085,"lng":-78.9772},{"city":"Ann Arbor","lat":42.2759,"lng":-83.731},{"city":"Jackson","lat":32.3157,"lng":-90.2125},{"city":"Antioch","lat":37.9787,"lng":-121.796},{"city":"Mobile","lat":30.6782,"lng":-88.1162},{"city":"Lexington","lat":38.0423,"lng":-84.4587},{"city":"Asheville","lat":35.5707,"lng":-82.5537},{"city":"Trenton","lat":40.2237,"lng":-74.7641},{"city":"Santa Rosa","lat":38.4458,"lng":-122.7067},{"city":"Santa Ana","lat":33.7367,"lng":-117.8819},{"city":"Lansing","lat":42.7142,"lng":-84.5601},{"city":"Henderson","lat":36.0133,"lng":-115.0381},{"city":"St. Paul","lat":44.9478,"lng":-93.1039},{"city":"Lakeland","lat":28.0557,"lng":-81.9545},{"city":"Newark","lat":40.7245,"lng":-74.1725},{"city":"Fort Collins","lat":40.5477,"lng":-105.0656},{"city":"Reading","lat":40.34,"lng":-75.9267},{"city":"Springfield","lat":37.1943,"lng":-93.2916},{"city":"Irvine","lat":33.6772,"lng":-117.7738},{"city":"Anchorage","lat":61.1508,"lng":-149.1091},{"city":"The Woodlands","lat":30.1738,"lng":-95.5134},{"city":"South Bend","lat":41.6767,"lng":-86.2696},{"city":"Rockford","lat":42.2596,"lng":-89.064},{"city":"Savannah","lat":32.0286,"lng":-81.1821},{"city":"Lincoln","lat":40.8099,"lng":-96.6784},{"city":"Jersey City","lat":40.7184,"lng":-74.0686},{"city":"Round Lake Beach","lat":42.3791,"lng":-88.0811},{"city":"Flint","lat":43.0236,"lng":-83.6921},{"city":"Shreveport","lat":32.4653,"lng":-93.7955},{"city":"Plano","lat":33.0502,"lng":-96.7486},{"city":"Myrtle Beach","lat":33.7094,"lng":-78.8844},{"city":"Davenport","lat":41.5565,"lng":-90.6053},{"city":"Canton","lat":40.8078,"lng":-81.3676},{"city":"Santa Clarita","lat":34.4175,"lng":-118.4964},{"city":"Chula Vista","lat":32.6281,"lng":-117.0144},{"city":"Eugene","lat":44.0564,"lng":-123.1174},{"city":"Chandler","lat":33.2825,"lng":-111.8514},{"city":"Salem","lat":44.9233,"lng":-123.0244},{"city":"Concord","lat":35.3933,"lng":-80.6369},{"city":"Gilbert","lat":33.31,"lng":-111.7463},{"city":"Columbus","lat":32.51,"lng":-84.8771},{"city":"Aguadilla","lat":18.4382,"lng":-67.1537},{"city":"Lubbock","lat":33.5657,"lng":-101.8879},{"city":"North Las Vegas","lat":36.2883,"lng":-115.0888},{"city":"St. Petersburg","lat":27.7931,"lng":-82.6652},{"city":"Tallahassee","lat":30.4551,"lng":-84.2527},{"city":"Laredo","lat":27.5625,"lng":-99.4874},{"city":"Peoria","lat":40.752,"lng":-89.6154},{"city":"Avondale","lat":33.3873,"lng":-112.3235},{"city":"Lafayette","lat":30.2082,"lng":-92.0325},{"city":"Irving","lat":32.8583,"lng":-96.9702},{"city":"Montgomery","lat":32.3482,"lng":-86.2668},{"city":"Visalia","lat":36.3276,"lng":-119.3269},{"city":"McKinney","lat":33.2016,"lng":-96.667},{"city":"Wilmington","lat":34.2099,"lng":-77.8866},{"city":"Chesapeake","lat":36.6778,"lng":-76.3023},{"city":"Glendale","lat":33.5791,"lng":-112.2311},{"city":"Garland","lat":32.91,"lng":-96.6304},{"city":"Kennewick","lat":46.1978,"lng":-119.1732},{"city":"Winter Haven","lat":28.0118,"lng":-81.7014},{"city":"Scottsdale","lat":33.6872,"lng":-111.8651},{"city":"Norfolk","lat":36.8945,"lng":-76.259},{"city":"Killeen","lat":31.0753,"lng":-97.7297},{"city":"York","lat":39.9651,"lng":-76.7315},{"city":"Atlantic City","lat":39.3797,"lng":-74.4527},{"city":"Nashua","lat":42.7491,"lng":-71.491},{"city":"Arlington","lat":38.8786,"lng":-77.1011},{"city":"Brownsville","lat":25.9975,"lng":-97.458},{"city":"Fremont","lat":37.5265,"lng":-121.9843},{"city":"Gulfport","lat":30.4274,"lng":-89.0704},{"city":"Evansville","lat":37.9881,"lng":-87.5341},{"city":"Hialeah","lat":25.8696,"lng":-80.3045},{"city":"Navarre","lat":30.4174,"lng":-86.8907},{"city":"Bel Air South","lat":39.5022,"lng":-76.3113},{"city":"North Port","lat":27.0576,"lng":-82.1977},{"city":"San Bernardino","lat":34.1416,"lng":-117.2943},{"city":"Portland","lat":43.6773,"lng":-70.2715},{"city":"Enterprise","lat":36.0091,"lng":-115.2278},{"city":"Bremerton","lat":47.5436,"lng":-122.7121},{"city":"Green Bay","lat":44.5148,"lng":-87.9895},{"city":"Appleton","lat":44.278,"lng":-88.3892},{"city":"Spring Valley","lat":36.0952,"lng":-115.2636},{"city":"Tacoma","lat":47.2431,"lng":-122.4531},{"city":"Spartanburg","lat":34.9442,"lng":-81.9251},{"city":"Roanoke","lat":37.2785,"lng":-79.9581},{"city":"Gainesville","lat":29.6804,"lng":-82.3459},{"city":"Deltona","lat":28.905,"lng":-81.2137},{"city":"Kalamazoo","lat":42.2749,"lng":-85.5882},{"city":"Thousand Oaks","lat":34.1914,"lng":-118.8756},{"city":"Hickory","lat":35.741,"lng":-81.3223},{"city":"Yonkers","lat":40.9466,"lng":-73.8673},{"city":"Moreno Valley","lat":33.9244,"lng":-117.2045},{"city":"Fontana","lat":34.0968,"lng":-117.4599},{"city":"College Station","lat":30.5852,"lng":-96.2959},{"city":"Fargo","lat":46.8651,"lng":-96.8292},{"city":"Amarillo","lat":35.1984,"lng":-101.8316},{"city":"Norwich","lat":41.5495,"lng":-72.0882},{"city":"Olympia","lat":47.0417,"lng":-122.8959},{"city":"Waterbury","lat":41.5582,"lng":-73.0361},{"city":"Salinas","lat":36.6883,"lng":-121.6317},{"city":"Huntington","lat":38.4109,"lng":-82.4345},{"city":"Huntington Beach","lat":33.696,"lng":-118.0018},{"city":"Clarksville","lat":36.5692,"lng":-87.3413},{"city":"Santa Barbara","lat":34.4285,"lng":-119.7202},{"city":"Glendale","lat":34.1819,"lng":-118.2468},{"city":"Sunrise Manor","lat":36.1783,"lng":-115.0487},{"city":"Grand Prairie","lat":32.6871,"lng":-97.0208},{"city":"Overland Park","lat":38.887,"lng":-94.687},{"city":"Hagerstown","lat":39.6401,"lng":-77.7217},{"city":"Nampa","lat":43.5844,"lng":-116.5638},{"city":"Gastonia","lat":35.2494,"lng":-81.1854},{"city":"Frisco","lat":33.156,"lng":-96.8216},{"city":"Cedar Rapids","lat":41.9662,"lng":-91.6783},{"city":"Hemet","lat":33.7341,"lng":-116.9969},{"city":"Paradise","lat":36.0872,"lng":-115.1355},{"city":"Sioux Falls","lat":43.5396,"lng":-96.7311},{"city":"Vancouver","lat":45.6366,"lng":-122.5967},{"city":"Peoria","lat":33.7843,"lng":-112.2989},{"city":"Waco","lat":31.5599,"lng":-97.1882},{"city":"Lorain","lat":41.4409,"lng":-82.184},{"city":"Erie","lat":42.1167,"lng":-80.0733},{"city":"Newport News","lat":37.1051,"lng":-76.5185},{"city":"Aurora","lat":41.7638,"lng":-88.2902},{"city":"Fort Lauderdale","lat":26.1412,"lng":-80.1464},{"city":"Vallejo","lat":38.1125,"lng":-122.2342},{"city":"Murfreesboro","lat":35.849,"lng":-86.4121},{"city":"Spring Hill","lat":28.4798,"lng":-82.53},{"city":"Tempe","lat":33.3881,"lng":-111.9319},{"city":"High Point","lat":35.991,"lng":-79.9937},{"city":"Medford","lat":42.3372,"lng":-122.854},{"city":"Danbury","lat":41.4015,"lng":-73.4709},{"city":"Elk Grove","lat":38.4161,"lng":-121.3842},{"city":"Ontario","lat":34.0393,"lng":-117.6064},{"city":"Frederick","lat":39.4337,"lng":-77.4141},{"city":"Vero Beach South","lat":27.6132,"lng":-80.4163},{"city":"Ocala","lat":29.178,"lng":-82.1511},{"city":"Oceanside","lat":33.2247,"lng":-117.3083},{"city":"Rancho Cucamonga","lat":34.1247,"lng":-117.5667},{"city":"Garden Grove","lat":33.7787,"lng":-117.9601},{"city":"Cary","lat":35.7819,"lng":-78.8195},{"city":"Pembroke Pines","lat":26.0128,"lng":-80.3382},{"city":"Bayam\u00f3n","lat":18.3794,"lng":-66.1635},{"city":"Palmdale","lat":34.5944,"lng":-118.1057},{"city":"Manchester","lat":42.9848,"lng":-71.4447},{"city":"Lafayette","lat":40.3991,"lng":-86.8593},{"city":"Santa Cruz","lat":36.9789,"lng":-122.0346},{"city":"Marysville","lat":48.0809,"lng":-122.1561},{"city":"Muskegon","lat":43.2281,"lng":-86.2562},{"city":"Springfield","lat":39.7709,"lng":-89.654},{"city":"Hayward","lat":37.6328,"lng":-122.0766},{"city":"New Bedford","lat":41.6697,"lng":-70.9428},{"city":"Alexandria","lat":38.8185,"lng":-77.0861},{"city":"Paterson","lat":40.9147,"lng":-74.1624},{"city":"Corona","lat":33.8616,"lng":-117.5649},{"city":"Merced","lat":37.3057,"lng":-120.4779},{"city":"Warner Robins","lat":32.5961,"lng":-83.6527},{"city":"Port Arthur","lat":29.8554,"lng":-93.9264},{"city":"Macon","lat":32.8065,"lng":-83.6974},{"city":"Kansas City","lat":39.1235,"lng":-94.7443},{"city":"Lakewood","lat":39.6977,"lng":-105.1172},{"city":"Sunnyvale","lat":37.3836,"lng":-122.0255},{"city":"Fredericksburg","lat":38.2992,"lng":-77.4872},{"city":"Leesburg","lat":28.7672,"lng":-81.8962},{"city":"Champaign","lat":40.1142,"lng":-88.2737},{"city":"Hollywood","lat":26.0293,"lng":-80.1679},{"city":"Pasadena","lat":29.6575,"lng":-95.1498},{"city":"Pomona","lat":34.0585,"lng":-117.7626},{"city":"Escondido","lat":33.1348,"lng":-117.0723},{"city":"Joliet","lat":41.5188,"lng":-88.1499},{"city":"Lake Charles","lat":30.201,"lng":-93.2111},{"city":"Mesquite","lat":32.7602,"lng":-96.5865},{"city":"Mauldin","lat":34.7821,"lng":-82.3032},{"city":"Panama City","lat":30.1995,"lng":-85.6003},{"city":"Bellevue","lat":47.5951,"lng":-122.1535},{"city":"Naperville","lat":41.748,"lng":-88.1659},{"city":"Harlingen","lat":26.1916,"lng":-97.6977},{"city":"Tuscaloosa","lat":33.2348,"lng":-87.5268},{"city":"Elkhart","lat":41.6916,"lng":-85.9627},{"city":"Torrance","lat":33.8346,"lng":-118.3416},{"city":"Binghamton","lat":42.1014,"lng":-75.9093},{"city":"Houma","lat":29.58,"lng":-90.7059},{"city":"Topeka","lat":39.0346,"lng":-95.6955},{"city":"Roseville","lat":38.7703,"lng":-121.3196},{"city":"Fairfield","lat":38.2583,"lng":-122.0335},{"city":"Tyler","lat":32.3184,"lng":-95.3062},{"city":"Fullerton","lat":33.8841,"lng":-117.9279},{"city":"Pueblo","lat":38.2701,"lng":-104.6114},{"city":"Athens","lat":33.9508,"lng":-83.3689},{"city":"Santa Maria","lat":34.9333,"lng":-120.4431},{"city":"Surprise","lat":33.6815,"lng":-112.4515},{"city":"Charleston","lat":38.3484,"lng":-81.6322},{"city":"Las Cruces","lat":32.3265,"lng":-106.7893},{"city":"Metairie","lat":29.9977,"lng":-90.178},{"city":"Thornton","lat":39.9197,"lng":-104.9438},{"city":"Olathe","lat":38.8833,"lng":-94.82},{"city":"Carolina","lat":18.4054,"lng":-65.9792},{"city":"Gainesville","lat":34.2902,"lng":-83.8294},{"city":"West Valley City","lat":40.6886,"lng":-112.0123},{"city":"Orange","lat":33.8038,"lng":-117.8218},{"city":"Warren","lat":42.4934,"lng":-83.027},{"city":"Pasadena","lat":34.1597,"lng":-118.139},{"city":"Beaumont","lat":30.0849,"lng":-94.1451},{"city":"Burlington","lat":36.076,"lng":-79.4685},{"city":"Hampton","lat":37.0551,"lng":-76.363},{"city":"Columbia","lat":38.9472,"lng":-92.3268},{"city":"Yuma","lat":32.5995,"lng":-114.5491},{"city":"Elizabeth","lat":40.6658,"lng":-74.1913},{"city":"Racine","lat":42.7274,"lng":-87.8135},{"city":"Greeley","lat":40.4152,"lng":-104.7706},{"city":"Kent","lat":47.3887,"lng":-122.2128},{"city":"Stamford","lat":41.1039,"lng":-73.5585},{"city":"Odessa","lat":31.8801,"lng":-102.3448},{"city":"Bloomington","lat":40.4757,"lng":-88.9703},{"city":"Miramar","lat":25.9773,"lng":-80.3351},{"city":"Grand Junction","lat":39.0877,"lng":-108.5673},{"city":"Sterling Heights","lat":42.5809,"lng":-83.0305},{"city":"Coral Springs","lat":26.2702,"lng":-80.2591},{"city":"Johnson City","lat":36.3406,"lng":-82.3806},{"city":"Carrollton","lat":32.989,"lng":-96.8999},{"city":"Midland","lat":32.0243,"lng":-102.1147},{"city":"Yakima","lat":46.5923,"lng":-120.5496},{"city":"Bellingham","lat":48.7548,"lng":-122.469},{"city":"Yuba City","lat":39.1357,"lng":-121.6383},{"city":"South Lyon","lat":42.4614,"lng":-83.6526},{"city":"Santa Clara","lat":37.3646,"lng":-121.968},{"city":"St. George","lat":37.0758,"lng":-113.5752},{"city":"Fort Smith","lat":35.3495,"lng":-94.3695},{"city":"Simi Valley","lat":34.2663,"lng":-118.749},{"city":"Dover","lat":39.161,"lng":-75.5202},{"city":"Norman","lat":35.2335,"lng":-97.3471},{"city":"Abilene","lat":32.4543,"lng":-99.7384},{"city":"Billings","lat":45.7891,"lng":-108.5526},{"city":"Ponce","lat":18.0127,"lng":-66.6212},{"city":"Lehigh Acres","lat":26.612,"lng":-81.6388},{"city":"St. Cloud","lat":45.534,"lng":-94.1718},{"city":"Arecibo","lat":18.4491,"lng":-66.7387},{"city":"Kenosha","lat":42.5865,"lng":-87.8773},{"city":"Greenville","lat":35.5943,"lng":-77.376},{"city":"Arvada","lat":39.832,"lng":-105.151},{"city":"Pearland","lat":29.5581,"lng":-95.3218},{"city":"Independence","lat":39.0871,"lng":-94.3501},{"city":"Texas City","lat":29.4154,"lng":-94.9682},{"city":"Redding","lat":40.5698,"lng":-122.365},{"city":"Lynchburg","lat":37.4003,"lng":-79.1909},{"city":"Boulder","lat":40.0248,"lng":-105.2524},{"city":"Iowa City","lat":41.6559,"lng":-91.5303},{"city":"Rochester","lat":44.0154,"lng":-92.478},{"city":"Berkeley","lat":37.8722,"lng":-122.276},{"city":"Waldorf","lat":38.6085,"lng":-76.9194},{"city":"The Villages","lat":28.9034,"lng":-81.9887},{"city":"Duluth","lat":46.7756,"lng":-92.1393},{"city":"East Los Angeles","lat":34.0326,"lng":-118.1691},{"city":"Saginaw","lat":43.4199,"lng":-83.9501},{"city":"Clovis","lat":36.8278,"lng":-119.683},{"city":"Leominster","lat":42.5209,"lng":-71.7717},{"city":"Round Rock","lat":30.527,"lng":-97.6642},{"city":"Monroe","lat":32.5185,"lng":-92.0774},{"city":"Cambridge","lat":42.3759,"lng":-71.1185},{"city":"Clearwater","lat":27.979,"lng":-82.7623},{"city":"Seaside","lat":36.6224,"lng":-121.8199},{"city":"West Jordan","lat":40.6024,"lng":-112.0008},{"city":"Richardson","lat":32.9716,"lng":-96.7093},{"city":"West Palm Beach","lat":26.7469,"lng":-80.132},{"city":"Temple","lat":31.1068,"lng":-97.3891},{"city":"Burlington","lat":44.4876,"lng":-73.2316},{"city":"Richmond","lat":37.9477,"lng":-122.3389},{"city":"Westminster","lat":39.8837,"lng":-105.0624},{"city":"Pottstown","lat":40.2508,"lng":-75.6445},{"city":"Brandon","lat":27.9367,"lng":-82.3},{"city":"Rock Hill","lat":34.9415,"lng":-81.0241},{"city":"Meridian","lat":43.6116,"lng":-116.3977},{"city":"Coeur d'Alene","lat":47.704,"lng":-116.7936},{"city":"Carlsbad","lat":33.1246,"lng":-117.2834},{"city":"Lowell","lat":42.6389,"lng":-71.3217},{"city":"Waterloo","lat":42.4918,"lng":-92.3522},{"city":"North Charleston","lat":32.9067,"lng":-80.0722},{"city":"Gilroy","lat":37.0046,"lng":-121.5854},{"city":"Downey","lat":33.9379,"lng":-118.1311},{"city":"Gresham","lat":45.5021,"lng":-122.4413},{"city":"Elgin","lat":42.0383,"lng":-88.324},{"city":"Utica","lat":43.0962,"lng":-75.2261},{"city":"Broken Arrow","lat":36.038,"lng":-95.7806},{"city":"Costa Mesa","lat":33.6667,"lng":-117.9135},{"city":"Chico","lat":39.7578,"lng":-121.8161},{"city":"Sioux City","lat":42.4959,"lng":-96.3901},{"city":"League City","lat":29.4874,"lng":-95.1087},{"city":"Miami Gardens","lat":25.9433,"lng":-80.2426},{"city":"Pompano Beach","lat":26.2428,"lng":-80.1312},{"city":"San Buenaventura","lat":34.2741,"lng":-119.2314},{"city":"Everett","lat":47.9525,"lng":-122.1669},{"city":"El Centro","lat":32.7865,"lng":-115.5595},{"city":"Sugar Land","lat":29.5935,"lng":-95.6358},{"city":"El Monte","lat":34.0739,"lng":-118.0291},{"city":"Lewisville","lat":33.0454,"lng":-96.9815},{"city":"West Covina","lat":34.0555,"lng":-117.9113},{"city":"Temecula","lat":33.4928,"lng":-117.1315},{"city":"Bend","lat":44.0563,"lng":-121.3095},{"city":"Salisbury","lat":38.3756,"lng":-75.5865},{"city":"Jacksonville","lat":34.7289,"lng":-77.3941},{"city":"Inglewood","lat":33.9566,"lng":-118.3444},{"city":"Dearborn","lat":42.3127,"lng":-83.213},{"city":"Centennial","lat":39.5926,"lng":-104.8673},{"city":"Burbank","lat":34.1879,"lng":-118.3235},{"city":"Sparks","lat":39.5736,"lng":-119.7161},{"city":"Sandy Springs","lat":33.9366,"lng":-84.3703},{"city":"Bloomington","lat":39.1637,"lng":-86.5257},{"city":"Logan","lat":41.7399,"lng":-111.8422},{"city":"Kailua","lat":21.392,"lng":-157.7396},{"city":"El Cajon","lat":32.8017,"lng":-116.9604},{"city":"Hillsboro","lat":45.5273,"lng":-122.936},{"city":"South Fulton","lat":33.6273,"lng":-84.58},{"city":"Renton","lat":47.4784,"lng":-122.1918},{"city":"Mandeville","lat":30.3751,"lng":-90.0904},{"city":"San Mateo","lat":37.5522,"lng":-122.3121},{"city":"Columbia","lat":39.2004,"lng":-76.859},{"city":"Daly City","lat":37.6862,"lng":-122.4685},{"city":"Davie","lat":26.0789,"lng":-80.287},{"city":"Jurupa Valley","lat":34.001,"lng":-117.4706},{"city":"Brockton","lat":42.0821,"lng":-71.0242},{"city":"Longmont","lat":40.1686,"lng":-105.1005},{"city":"Rialto","lat":34.1175,"lng":-117.3892},{"city":"San Germ\u00e1n","lat":18.0827,"lng":-67.046},{"city":"Eau Claire","lat":44.8197,"lng":-91.4948},{"city":"Turlock","lat":37.5053,"lng":-120.8588},{"city":"Norwalk","lat":33.9069,"lng":-118.0829},{"city":"Highlands Ranch","lat":39.5419,"lng":-104.9708},{"city":"Allen","lat":33.1088,"lng":-96.6735},{"city":"Wichita Falls","lat":33.9072,"lng":-98.5291},{"city":"Rio Rancho","lat":35.2873,"lng":-106.6982},{"city":"Vacaville","lat":38.3587,"lng":-121.9673},{"city":"Spokane Valley","lat":47.6626,"lng":-117.2346},{"city":"Charlottesville","lat":38.0375,"lng":-78.4855},{"city":"Idaho Falls","lat":43.4871,"lng":-112.0362},{"city":"Menifee","lat":33.6909,"lng":-117.1849},{"city":"Lee's Summit","lat":38.9171,"lng":-94.3816},{"city":"Quincy","lat":42.2506,"lng":-71.0187},{"city":"San Angelo","lat":31.4424,"lng":-100.4504},{"city":"Lynn","lat":42.4781,"lng":-70.9664},{"city":"Holland","lat":42.7677,"lng":-86.0984},{"city":"Federal Way","lat":47.3091,"lng":-122.3358},{"city":"Manteca","lat":37.7927,"lng":-121.2264},{"city":"Lafayette","lat":39.9946,"lng":-105.0998},{"city":"Santa Fe","lat":35.6619,"lng":-105.9819},{"city":"Hesperia","lat":34.3975,"lng":-117.3147},{"city":"La Crosse","lat":43.8241,"lng":-91.2268},{"city":"Riverview","lat":27.8227,"lng":-82.3023},{"city":"Kingsport","lat":36.5224,"lng":-82.5454},{"city":"Edinburg","lat":26.3196,"lng":-98.1597},{"city":"Vista","lat":33.1896,"lng":-117.2386},{"city":"Bowling Green","lat":36.9716,"lng":-86.4378},{"city":"Carmel","lat":39.965,"lng":-86.146},{"city":"Longview","lat":32.5193,"lng":-94.7622},{"city":"Tracy","lat":37.7269,"lng":-121.4523},{"city":"Prescott Valley","lat":34.598,"lng":-112.3185},{"city":"Beaverton","lat":45.4779,"lng":-122.8168},{"city":"Portsmouth","lat":43.058,"lng":-70.7826},{"city":"Portsmouth","lat":36.8468,"lng":-76.354},{"city":"Fishers","lat":39.9588,"lng":-85.9659},{"city":"Orem","lat":40.2981,"lng":-111.6994},{"city":"Sandy","lat":40.5709,"lng":-111.8506},{"city":"Sunrise","lat":26.1547,"lng":-80.2997},{"city":"San Tan Valley","lat":33.1786,"lng":-111.5629},{"city":"Compton","lat":33.893,"lng":-118.2274},{"city":"Arden-Arcade","lat":38.6017,"lng":-121.3845},{"city":"Hanford","lat":36.3274,"lng":-119.6549},{"city":"Boca Raton","lat":26.3752,"lng":-80.108},{"city":"Middletown","lat":39.5033,"lng":-84.3659},{"city":"Livonia","lat":42.3972,"lng":-83.3733},{"city":"Carson","lat":33.8374,"lng":-118.2559},{"city":"Lawrence","lat":38.9597,"lng":-95.2642},{"city":"Slidell","lat":30.2887,"lng":-89.7828},{"city":"Blacksburg","lat":37.23,"lng":-80.4279},{"city":"San Marcos","lat":33.135,"lng":-117.1743},{"city":"Goodyear","lat":33.2614,"lng":-112.3622},{"city":"Edmond","lat":35.6689,"lng":-97.416},{"city":"Mayag\u00fcez","lat":18.2003,"lng":-67.1397},{"city":"Fall River","lat":41.7136,"lng":-71.1015},{"city":"South Gate","lat":33.9447,"lng":-118.1926},{"city":"Suffolk","lat":36.6953,"lng":-76.6398},{"city":"Terre Haute","lat":39.466,"lng":-87.3751},{"city":"Missoula","lat":46.8751,"lng":-114.0214},{"city":"Santa Monica","lat":34.0235,"lng":-118.481},{"city":"Roswell","lat":34.0391,"lng":-84.3513},{"city":"Vineland","lat":39.4653,"lng":-74.9981},{"city":"Plantation","lat":26.1259,"lng":-80.2617},{"city":"Alafaya","lat":28.528,"lng":-81.1868},{"city":"Kirkland","lat":47.697,"lng":-122.2057},{"city":"Hoover","lat":33.3763,"lng":-86.8068},{"city":"Westminster","lat":33.7523,"lng":-117.9938},{"city":"Lawton","lat":34.6175,"lng":-98.4202},{"city":"San Leandro","lat":37.7074,"lng":-122.1599},{"city":"Auburn","lat":32.6087,"lng":-85.4903},{"city":"Norwalk","lat":41.1144,"lng":-73.4215},{"city":"O'Fallon","lat":38.785,"lng":-90.7175},{"city":"Chino","lat":33.9836,"lng":-117.6654},{"city":"Germantown","lat":39.1755,"lng":-77.2643},{"city":"Dover","lat":43.1887,"lng":-70.8845},{"city":"Bismarck","lat":46.8143,"lng":-100.7694},{"city":"Waukegan","lat":42.3698,"lng":-87.8716},{"city":"Buckeye","lat":33.4314,"lng":-112.6429},{"city":"Town 'n' Country","lat":28.0106,"lng":-82.5763},{"city":"Clifton","lat":40.863,"lng":-74.1575},{"city":"Bloomington","lat":44.8306,"lng":-93.3151},{"city":"Mount Pleasant","lat":32.8537,"lng":-79.8203},{"city":"Florence","lat":34.178,"lng":-79.7898},{"city":"Newton","lat":42.3316,"lng":-71.2085},{"city":"State College","lat":40.7909,"lng":-77.8567},{"city":"Livermore","lat":37.6868,"lng":-121.7607},{"city":"Rapid City","lat":44.0716,"lng":-103.2204},{"city":"Decatur","lat":39.8557,"lng":-88.9342},{"city":"Dalton","lat":34.769,"lng":-84.972},{"city":"Conroe","lat":30.3238,"lng":-95.4824},{"city":"Hawthorne","lat":33.9147,"lng":-118.3476},{"city":"Lawrence","lat":42.7002,"lng":-71.1626},{"city":"New Braunfels","lat":29.6994,"lng":-98.1148},{"city":"Citrus Heights","lat":38.6948,"lng":-121.288},{"city":"Jackson","lat":42.2431,"lng":-84.4038},{"city":"Whittier","lat":33.9678,"lng":-118.0188},{"city":"Muncie","lat":40.1989,"lng":-85.395},{"city":"Troy","lat":42.5817,"lng":-83.1457},{"city":"Homosassa Springs","lat":28.8119,"lng":-82.5392},{"city":"Port Huron","lat":42.9821,"lng":-82.4388},{"city":"Napa","lat":38.2975,"lng":-122.301},{"city":"Deerfield Beach","lat":26.305,"lng":-80.1277},{"city":"Springdale","lat":36.1901,"lng":-94.1574},{"city":"Newport Beach","lat":33.6151,"lng":-117.8668},{"city":"Anderson","lat":40.0891,"lng":-85.6892},{"city":"San Ramon","lat":37.7624,"lng":-121.9365},{"city":"Lake Forest","lat":33.6605,"lng":-117.6714},{"city":"Mission","lat":26.2039,"lng":-98.3256},{"city":"Auburn","lat":47.3039,"lng":-122.2108},{"city":"Brooklyn Park","lat":45.1112,"lng":-93.3505},{"city":"Bryan","lat":30.665,"lng":-96.3807},{"city":"Springfield","lat":39.93,"lng":-83.7959},{"city":"Hattiesburg","lat":31.3074,"lng":-89.317},{"city":"Westland","lat":42.3192,"lng":-83.3805},{"city":"Cicero","lat":41.8445,"lng":-87.7593},{"city":"Albany","lat":31.5776,"lng":-84.1762},{"city":"Fort Myers","lat":26.6194,"lng":-81.8302},{"city":"Pine Hills","lat":28.5818,"lng":-81.4692},{"city":"Atascocita","lat":29.9777,"lng":-95.1953},{"city":"Buena Park","lat":33.8572,"lng":-118.0046},{"city":"Redwood City","lat":37.5025,"lng":-122.2253},{"city":"Farmington Hills","lat":42.486,"lng":-83.3771},{"city":"Alton","lat":38.9037,"lng":-90.152},{"city":"Melbourne","lat":28.1086,"lng":-80.6627},{"city":"Miami Beach","lat":25.8171,"lng":-80.1396},{"city":"Alhambra","lat":34.084,"lng":-118.1355},{"city":"Williamsburg","lat":37.2693,"lng":-76.7076},{"city":"Madera","lat":36.963,"lng":-120.0778},{"city":"Warwick","lat":41.7062,"lng":-71.4334},{"city":"Cranston","lat":41.7658,"lng":-71.4858},{"city":"Baytown","lat":29.7587,"lng":-94.9671},{"city":"Largo","lat":27.9088,"lng":-82.7712},{"city":"Silver Spring","lat":39.0028,"lng":-77.0207},{"city":"Lakewood","lat":33.8471,"lng":-118.1222},{"city":"Mountain View","lat":37.4001,"lng":-122.0796},{"city":"Kankakee","lat":41.102,"lng":-87.8643},{"city":"Johns Creek","lat":34.0333,"lng":-84.2027},{"city":"Flagstaff","lat":35.1872,"lng":-111.6194},{"city":"Franklin","lat":35.92,"lng":-86.8516},{"city":"Joplin","lat":37.0757,"lng":-94.5018},{"city":"Parma","lat":41.3843,"lng":-81.7286},{"city":"Layton","lat":41.077,"lng":-111.962},{"city":"New Rochelle","lat":40.9304,"lng":-73.7836},{"city":"Anderson","lat":34.5211,"lng":-82.6478},{"city":"Lebanon","lat":40.3412,"lng":-76.4228},{"city":"Somerville","lat":42.3908,"lng":-71.1014},{"city":"Yauco","lat":18.0344,"lng":-66.8615},{"city":"St. Joseph","lat":39.7598,"lng":-94.821},{"city":"Plymouth","lat":45.0225,"lng":-93.4617},{"city":"Tustin","lat":33.7311,"lng":-117.8107},{"city":"Zephyrhills","lat":28.2409,"lng":-82.1797},{"city":"Milpitas","lat":37.4336,"lng":-121.8921},{"city":"Florence","lat":34.8303,"lng":-87.6655},{"city":"Pleasanton","lat":37.6663,"lng":-121.8805},{"city":"Boynton Beach","lat":26.5281,"lng":-80.0811},{"city":"Texarkana","lat":33.45,"lng":-94.0847},{"city":"Folsom","lat":38.6668,"lng":-121.1422},{"city":"Bellflower","lat":33.888,"lng":-118.1271},{"city":"Pharr","lat":26.1685,"lng":-98.1904},{"city":"Homestead","lat":25.4665,"lng":-80.4472},{"city":"Valdosta","lat":30.8502,"lng":-83.2788},{"city":"Upland","lat":34.1178,"lng":-117.6604},{"city":"Evanston","lat":42.0464,"lng":-87.6943},{"city":"Newark","lat":40.0706,"lng":-82.425},{"city":"Elizabethtown","lat":37.7031,"lng":-85.8773},{"city":"St. Augustine","lat":29.8976,"lng":-81.31},{"city":"Rancho Cordova","lat":38.5737,"lng":-121.2527},{"city":"Alameda","lat":37.7668,"lng":-122.267},{"city":"Chino Hills","lat":33.9508,"lng":-117.7254},{"city":"Perris","lat":33.7898,"lng":-117.2233},{"city":"Schaumburg","lat":42.0308,"lng":-88.0838},{"city":"Kendall","lat":25.6697,"lng":-80.3556},{"city":"Camarillo","lat":34.223,"lng":-119.0321},{"city":"Anniston","lat":33.6712,"lng":-85.8135},{"city":"Sumter","lat":33.9392,"lng":-80.393},{"city":"Jonesboro","lat":35.8212,"lng":-90.6791},{"city":"Hammond","lat":41.6168,"lng":-87.4909},{"city":"Carmichael","lat":38.6318,"lng":-121.3263},{"city":"Arlington Heights","lat":42.0955,"lng":-87.9826},{"city":"Morgantown","lat":39.6383,"lng":-79.9464},{"city":"Wyoming","lat":42.8908,"lng":-85.7066},{"city":"Cheyenne","lat":41.135,"lng":-104.7902},{"city":"Pasco","lat":46.2506,"lng":-119.1305},{"city":"Watsonville","lat":36.9206,"lng":-121.7708},{"city":"Southfield","lat":42.4765,"lng":-83.2605},{"city":"Wausau","lat":44.962,"lng":-89.6459},{"city":"Rochester Hills","lat":42.6645,"lng":-83.1563},{"city":"Loveland","lat":40.4166,"lng":-105.0623},{"city":"Alexandria","lat":31.2923,"lng":-92.4702},{"city":"Pittsburg","lat":38.0182,"lng":-121.8965},{"city":"Hammond","lat":30.5061,"lng":-90.4563},{"city":"South Jordan","lat":40.557,"lng":-111.9784},{"city":"Battle Creek","lat":42.2985,"lng":-85.2296},{"city":"Bethlehem","lat":40.6266,"lng":-75.3679},{"city":"Fajardo","lat":18.3331,"lng":-65.6589},{"city":"Davis","lat":38.5553,"lng":-121.737},{"city":"Apple Valley","lat":34.5352,"lng":-117.2109},{"city":"Pawtucket","lat":41.8744,"lng":-71.3743},{"city":"Wheeling","lat":40.0752,"lng":-80.6951},{"city":"Flower Mound","lat":33.0343,"lng":-97.1146},{"city":"Harrisonburg","lat":38.4362,"lng":-78.8735},{"city":"Cedar Park","lat":30.5105,"lng":-97.8197},{"city":"Oshkosh","lat":44.0227,"lng":-88.5619},{"city":"Winchester","lat":39.1735,"lng":-78.1746},{"city":"Caguas","lat":18.2319,"lng":-66.0388},{"city":"Ellicott City","lat":39.2774,"lng":-76.8345},{"city":"Pocatello","lat":42.8724,"lng":-112.4647},{"city":"Hilton Head Island","lat":32.1896,"lng":-80.7499},{"city":"New Britain","lat":41.6759,"lng":-72.7862},{"city":"Mansfield","lat":40.7656,"lng":-82.5275},{"city":"Woodbury","lat":44.9057,"lng":-92.923},{"city":"Lauderhill","lat":26.1605,"lng":-80.2241},{"city":"Lehi","lat":40.4136,"lng":-111.8725},{"city":"Bolingbrook","lat":41.6901,"lng":-88.1021},{"city":"Dale City","lat":38.6473,"lng":-77.3459},{"city":"Missouri City","lat":29.563,"lng":-95.5365},{"city":"Lake Jackson","lat":29.0516,"lng":-95.4521},{"city":"Altoona","lat":40.5082,"lng":-78.4007},{"city":"Doral","lat":25.8152,"lng":-80.3565},{"city":"Owensboro","lat":37.7575,"lng":-87.1172},{"city":"Centreville","lat":38.839,"lng":-77.4389},{"city":"Mount Vernon","lat":40.9136,"lng":-73.8291},{"city":"Baldwin Park","lat":34.0829,"lng":-117.9722},{"city":"Broomfield","lat":39.9542,"lng":-105.0526},{"city":"Redlands","lat":34.0512,"lng":-117.1712},{"city":"Cleveland","lat":35.1817,"lng":-84.8707},{"city":"Dothan","lat":31.2336,"lng":-85.407},{"city":"Camden","lat":39.9361,"lng":-75.1073},{"city":"Redmond","lat":47.6763,"lng":-122.1169},{"city":"Framingham","lat":42.3085,"lng":-71.4368},{"city":"Jackson","lat":35.6538,"lng":-88.8354},{"city":"Janesville","lat":42.6854,"lng":-89.0135},{"city":"Juana D\u00edaz","lat":18.0532,"lng":-66.5044},{"city":"Mansfield","lat":32.569,"lng":-97.1213},{"city":"Waukesha","lat":43.0087,"lng":-88.2464},{"city":"Tamarac","lat":26.2056,"lng":-80.2539},{"city":"Wenatchee","lat":47.436,"lng":-120.3295},{"city":"Daytona Beach","lat":29.1995,"lng":-81.0982},{"city":"Castle Rock","lat":39.3763,"lng":-104.8535},{"city":"Redondo Beach","lat":33.8577,"lng":-118.3765},{"city":"Wilmington","lat":39.7415,"lng":-75.5416},{"city":"San Marcos","lat":29.8734,"lng":-97.9356},{"city":"Union City","lat":37.6032,"lng":-122.0181},{"city":"Eldersburg","lat":39.4041,"lng":-76.9528},{"city":"Conway","lat":35.0753,"lng":-92.4692},{"city":"Bayonne","lat":40.6668,"lng":-74.1158},{"city":"Guaynabo","lat":18.3832,"lng":-66.1134},{"city":"Rocklin","lat":38.8075,"lng":-121.2489},{"city":"Passaic","lat":40.8574,"lng":-74.1282},{"city":"Sheboygan","lat":43.7403,"lng":-87.7316},{"city":"Casas Adobes","lat":32.3423,"lng":-111.0113},{"city":"St. Charles","lat":38.7954,"lng":-90.5157},{"city":"Maple Grove","lat":45.1089,"lng":-93.4626},{"city":"Walnut Creek","lat":37.9024,"lng":-122.0399},{"city":"Dublin","lat":37.7161,"lng":-121.8963},{"city":"North Richland Hills","lat":32.8604,"lng":-97.218},{"city":"Gary","lat":41.5905,"lng":-87.3473},{"city":"Glen Burnie","lat":39.156,"lng":-76.6071},{"city":"Bristol","lat":36.5572,"lng":-82.2154},{"city":"Decatur","lat":34.5731,"lng":-86.9905},{"city":"West Bend","lat":43.4173,"lng":-88.1818},{"city":"Lodi","lat":38.1218,"lng":-121.2932},{"city":"Lima","lat":40.741,"lng":-84.112},{"city":"Florida","lat":18.3643,"lng":-66.5611},{"city":"Lakeville","lat":44.6774,"lng":-93.252},{"city":"Blaine","lat":45.1696,"lng":-93.2077},{"city":"Poinciana","lat":28.1217,"lng":-81.4821},{"city":"East Orange","lat":40.7651,"lng":-74.2117},{"city":"Noblesville","lat":40.0355,"lng":-86.0042},{"city":"Gaithersburg","lat":39.1346,"lng":-77.2131},{"city":"Lake Elsinore","lat":33.6847,"lng":-117.3344},{"city":"Palo Alto","lat":37.3905,"lng":-122.1468},{"city":"Eastvale","lat":33.9617,"lng":-117.5803},{"city":"Tulare","lat":36.1995,"lng":-119.34},{"city":"Rogers","lat":36.317,"lng":-94.1531},{"city":"Yorba Linda","lat":33.889,"lng":-117.7714},{"city":"Parkersburg","lat":39.2623,"lng":-81.542},{"city":"Eagan","lat":44.817,"lng":-93.1638},{"city":"Weston","lat":26.1006,"lng":-80.4054},{"city":"Longview","lat":46.1461,"lng":-122.963},{"city":"Bay City","lat":43.5902,"lng":-83.8887},{"city":"Dubuque","lat":42.5002,"lng":-90.707},{"city":"Union City","lat":40.7675,"lng":-74.0323},{"city":"Porterville","lat":36.0643,"lng":-119.0338},{"city":"Mount Vernon","lat":48.4203,"lng":-122.3115},{"city":"Palatine","lat":42.118,"lng":-88.043},{"city":"El Paso de Robles","lat":35.6394,"lng":-120.656},{"city":"West Des Moines","lat":41.5521,"lng":-93.7806},{"city":"Lynwood","lat":33.924,"lng":-118.2016},{"city":"Skokie","lat":42.036,"lng":-87.74},{"city":"Sherman","lat":33.6273,"lng":-96.6221},{"city":"Rockville","lat":39.0834,"lng":-77.1553},{"city":"Haverhill","lat":42.7838,"lng":-71.0871},{"city":"Hanover","lat":39.8118,"lng":-76.9836},{"city":"Shawnee","lat":39.0158,"lng":-94.8076},{"city":"Rome","lat":34.2662,"lng":-85.1863},{"city":"Schenectady","lat":42.8025,"lng":-73.9275},{"city":"South Hill","lat":47.1198,"lng":-122.2853},{"city":"DeKalb","lat":41.9314,"lng":-88.7481},{"city":"Petaluma","lat":38.2423,"lng":-122.6266},{"city":"Sammamish","lat":47.6017,"lng":-122.0416},{"city":"Georgetown","lat":30.666,"lng":-97.6966},{"city":"Carbondale","lat":37.7221,"lng":-89.2237},{"city":"Delray Beach","lat":26.455,"lng":-80.0905},{"city":"Dundalk","lat":39.2704,"lng":-76.4942},{"city":"Kenner","lat":30.0109,"lng":-90.2549},{"city":"Albany","lat":44.6272,"lng":-123.0965},{"city":"Ankeny","lat":41.7288,"lng":-93.6031},{"city":"South San Francisco","lat":37.6538,"lng":-122.4196},{"city":"Castro Valley","lat":37.7088,"lng":-122.0626},{"city":"Bethesda","lat":38.9866,"lng":-77.1188},{"city":"Saratoga Springs","lat":43.0674,"lng":-73.7775},{"city":"Corvallis","lat":44.5698,"lng":-123.2779},{"city":"Brentwood","lat":40.7839,"lng":-73.2522},{"city":"Ames","lat":42.0256,"lng":-93.6217},{"city":"Glens Falls","lat":43.3109,"lng":-73.6458},{"city":"Michigan City","lat":41.7092,"lng":-86.869},{"city":"Victoria","lat":28.8287,"lng":-96.9849},{"city":"Malden","lat":42.4305,"lng":-71.0576},{"city":"Weirton","lat":40.406,"lng":-80.5671},{"city":"Novi","lat":42.4786,"lng":-83.4893},{"city":"Guayama","lat":17.9743,"lng":-66.1104},{"city":"Alpharetta","lat":34.0704,"lng":-84.2738},{"city":"Wesley Chapel","lat":28.2106,"lng":-82.3238},{"city":"Waltham","lat":42.3889,"lng":-71.2423},{"city":"Laguna Niguel","lat":33.5275,"lng":-117.705},{"city":"San Clemente","lat":33.4499,"lng":-117.6102},{"city":"North Little Rock","lat":34.7807,"lng":-92.2371},{"city":"Fairbanks","lat":64.8353,"lng":-147.6533},{"city":"Florence-Graham","lat":33.9682,"lng":-118.2447},{"city":"Eden Prairie","lat":44.8488,"lng":-93.4595},{"city":"Twin Rivers","lat":40.2631,"lng":-74.4917},{"city":"Pflugerville","lat":30.4515,"lng":-97.6018},{"city":"Casper","lat":42.842,"lng":-106.3208},{"city":"Burnsville","lat":44.7648,"lng":-93.2793},{"city":"Grand Forks","lat":47.9214,"lng":-97.0884},{"city":"Brentwood","lat":37.9356,"lng":-121.719},{"city":"Millcreek","lat":40.6892,"lng":-111.8292},{"city":"Elmira","lat":42.0938,"lng":-76.8097},{"city":"Sebring","lat":27.477,"lng":-81.453},{"city":"La Habra","lat":33.9282,"lng":-117.9515},{"city":"Coon Rapids","lat":45.1755,"lng":-93.3094},{"city":"Bossier City","lat":32.5224,"lng":-93.6668},{"city":"Hamilton","lat":39.3939,"lng":-84.5653},{"city":"Taylor","lat":42.226,"lng":-83.2688},{"city":"Lakewood","lat":47.1628,"lng":-122.5299},{"city":"Greenwood","lat":39.6019,"lng":-86.1073},{"city":"Bellevue","lat":41.1485,"lng":-95.939},{"city":"Montebello","lat":34.0155,"lng":-118.1108},{"city":"Moore","lat":35.3293,"lng":-97.4757},{"city":"Council Bluffs","lat":41.2369,"lng":-95.8516},{"city":"Rowlett","lat":32.9155,"lng":-96.5489},{"city":"Spring","lat":30.0613,"lng":-95.383},{"city":"Port Charlotte","lat":26.9918,"lng":-82.114},{"city":"Reston","lat":38.9497,"lng":-77.3461},{"city":"Pico Rivera","lat":33.9901,"lng":-118.0888},{"city":"Dearborn Heights","lat":42.3164,"lng":-83.2769},{"city":"Port Orange","lat":29.1085,"lng":-81.0137},{"city":"Encinitas","lat":33.0492,"lng":-117.261},{"city":"Springfield","lat":44.0538,"lng":-122.9811},{"city":"Great Falls","lat":47.5022,"lng":-111.2996},{"city":"Rocky Mount","lat":35.9685,"lng":-77.804},{"city":"Commerce City","lat":39.8641,"lng":-104.843},{"city":"Pontiac","lat":42.6493,"lng":-83.2878},{"city":"The Hammocks","lat":25.67,"lng":-80.4482},{"city":"Wellington","lat":26.6461,"lng":-80.2699},{"city":"San Rafael","lat":37.9905,"lng":-122.5221},{"city":"Monterey Park","lat":34.0497,"lng":-118.1326},{"city":"La Mesa","lat":32.7703,"lng":-117.0204},{"city":"Woodland","lat":38.6712,"lng":-121.75},{"city":"Marietta","lat":33.9533,"lng":-84.5422},{"city":"Chapel Hill","lat":35.9271,"lng":-79.0391},{"city":"Gardena","lat":33.8943,"lng":-118.3072},{"city":"Meriden","lat":41.5369,"lng":-72.7946},{"city":"Bristol","lat":41.6812,"lng":-72.9407},{"city":"Revere","lat":42.4189,"lng":-71.004},{"city":"Medford","lat":42.4234,"lng":-71.1087},{"city":"Palm Harbor","lat":28.0847,"lng":-82.7481},{"city":"Cupertino","lat":37.3168,"lng":-122.0466},{"city":"Jupiter","lat":26.92,"lng":-80.1128},{"city":"Hendersonville","lat":36.3063,"lng":-86.5997},{"city":"North Miami","lat":25.9008,"lng":-80.1686},{"city":"Des Plaines","lat":42.0345,"lng":-87.9008},{"city":"Taylorsville","lat":40.6569,"lng":-111.9493},{"city":"West Allis","lat":43.0068,"lng":-88.0296},{"city":"Sanford","lat":28.7891,"lng":-81.2757},{"city":"Huntersville","lat":35.406,"lng":-80.8716},{"city":"Euless","lat":32.8508,"lng":-97.08},{"city":"Richland","lat":46.2824,"lng":-119.2939},{"city":"Santee","lat":32.8554,"lng":-116.9851},{"city":"White Plains","lat":41.022,"lng":-73.7547},{"city":"Hoboken","lat":40.7452,"lng":-74.0281},{"city":"Kokomo","lat":40.464,"lng":-86.1277},{"city":"Taunton","lat":41.9036,"lng":-71.0943},{"city":"St. Clair Shores","lat":42.4925,"lng":-82.8961},{"city":"Towson","lat":39.3944,"lng":-76.619},{"city":"Caldwell","lat":43.6453,"lng":-116.6594},{"city":"South Whittier","lat":33.9336,"lng":-118.0312},{"city":"Orland Park","lat":41.6075,"lng":-87.8619},{"city":"Stonecrest","lat":33.6842,"lng":-84.1372},{"city":"Palm Beach Gardens","lat":26.8466,"lng":-80.1679},{"city":"Royal Oak","lat":42.5084,"lng":-83.1539},{"city":"Margate","lat":26.2466,"lng":-80.2119},{"city":"Blue Springs","lat":39.0124,"lng":-94.2721},{"city":"Shoreline","lat":47.7564,"lng":-122.3426},{"city":"Midwest City","lat":35.463,"lng":-97.371},{"city":"Bowie","lat":38.9549,"lng":-76.7406},{"city":"Apex","lat":35.7237,"lng":-78.8743},{"city":"Oak Lawn","lat":41.7139,"lng":-87.7528},{"city":"Carson City","lat":39.1511,"lng":-119.7476},{"city":"Fountainebleau","lat":25.7723,"lng":-80.346},{"city":"Queen Creek","lat":33.2454,"lng":-111.6173},{"city":"Leander","lat":30.5728,"lng":-97.8618},{"city":"Bartlett","lat":35.2337,"lng":-89.8195},{"city":"St. Cloud","lat":28.2363,"lng":-81.2779},{"city":"Coconut Creek","lat":26.2803,"lng":-80.1842},{"city":"Kettering","lat":39.6956,"lng":-84.1494},{"city":"Parker","lat":39.5084,"lng":-104.7753},{"city":"St. Peters","lat":38.7825,"lng":-90.6061},{"city":"Fountain Valley","lat":33.7105,"lng":-117.9514},{"city":"Maricopa","lat":33.0408,"lng":-112.0011},{"city":"Berwyn","lat":41.8433,"lng":-87.7909},{"city":"National City","lat":32.6654,"lng":-117.0983},{"city":"Lenexa","lat":38.9609,"lng":-94.8018},{"city":"Highland","lat":34.1113,"lng":-117.165},{"city":"Arcadia","lat":34.1342,"lng":-118.0373},{"city":"Mount Prospect","lat":42.0641,"lng":-87.9375},{"city":"Lake Havasu City","lat":34.5006,"lng":-114.3113},{"city":"Tinley Park","lat":41.567,"lng":-87.8049},{"city":"DeSoto","lat":32.5992,"lng":-96.8633},{"city":"New Brunswick","lat":40.487,"lng":-74.445},{"city":"Chicopee","lat":42.1764,"lng":-72.5719},{"city":"Madison","lat":34.7114,"lng":-86.7626},{"city":"West Haven","lat":41.2739,"lng":-72.9672},{"city":"Smyrna","lat":33.8633,"lng":-84.5168},{"city":"Huntington Park","lat":33.98,"lng":-118.2167},{"city":"Wylie","lat":33.0362,"lng":-96.5161},{"city":"Diamond Bar","lat":33.9992,"lng":-117.8161},{"city":"Apple Valley","lat":44.7457,"lng":-93.2004},{"city":"Perth Amboy","lat":40.5202,"lng":-74.2724},{"city":"Bradenton","lat":27.4901,"lng":-82.5757},{"city":"Brookhaven","lat":33.8743,"lng":-84.3314},{"city":"Hacienda Heights","lat":33.997,"lng":-117.9727},{"city":"Manhattan","lat":39.1886,"lng":-96.6048},{"city":"Tigard","lat":45.4237,"lng":-122.7845},{"city":"Tamiami","lat":25.7556,"lng":-80.4016},{"city":"Yucaipa","lat":34.0336,"lng":-117.0429},{"city":"Westchester","lat":25.7471,"lng":-80.3523},{"city":"Peabody","lat":42.5335,"lng":-70.9725},{"city":"Plainfield","lat":40.6154,"lng":-74.4157},{"city":"Southaven","lat":34.9514,"lng":-89.9786},{"city":"Apopka","lat":28.7015,"lng":-81.5316},{"city":"Oak Park","lat":41.8872,"lng":-87.7899},{"city":"Horizon West","lat":28.4417,"lng":-81.6146},{"city":"Severn","lat":39.1355,"lng":-76.6956},{"city":"Paramount","lat":33.8977,"lng":-118.1651},{"city":"Colton","lat":34.0538,"lng":-117.3255},{"city":"Kentwood","lat":42.8852,"lng":-85.5926},{"city":"Aspen Hill","lat":39.0927,"lng":-77.0826},{"city":"Minnetonka","lat":44.9322,"lng":-93.4598},{"city":"Wheaton","lat":41.8561,"lng":-88.1085},{"city":"West Sacramento","lat":38.5557,"lng":-121.5505},{"city":"Casa Grande","lat":32.9069,"lng":-111.7624},{"city":"Normal","lat":40.5217,"lng":-88.9884},{"city":"Kendale Lakes","lat":25.7081,"lng":-80.4078},{"city":"San Jacinto","lat":33.797,"lng":-116.9916},{"city":"Novato","lat":38.092,"lng":-122.5575},{"city":"Pinellas Park","lat":27.8589,"lng":-82.7078},{"city":"Galveston","lat":29.2484,"lng":-94.8913},{"city":"Edina","lat":44.8914,"lng":-93.3602},{"city":"Herriman","lat":40.4899,"lng":-112.017},{"city":"Elyria","lat":41.376,"lng":-82.106},{"city":"Grand Island","lat":40.9218,"lng":-98.3586},{"city":"Aloha","lat":45.492,"lng":-122.8725},{"city":"Lacey","lat":47.0462,"lng":-122.7933},{"city":"Bentonville","lat":36.3547,"lng":-94.2305},{"city":"Levittown","lat":40.7241,"lng":-73.5125},{"city":"Methuen Town","lat":42.734,"lng":-71.1889},{"city":"West New York","lat":40.7857,"lng":-74.0094},{"city":"Glendora","lat":34.1449,"lng":-117.8467},{"city":"Smyrna","lat":35.9687,"lng":-86.5264},{"city":"Florissant","lat":38.7996,"lng":-90.3269},{"city":"Delano","lat":35.7662,"lng":-119.2635},{"city":"Kannapolis","lat":35.4764,"lng":-80.6408},{"city":"Hoffman Estates","lat":42.064,"lng":-88.1468},{"city":"Beaumont","lat":33.9076,"lng":-116.9766},{"city":"Placentia","lat":33.8807,"lng":-117.8553},{"city":"Aliso Viejo","lat":33.5792,"lng":-117.7289},{"city":"Wheaton","lat":39.0492,"lng":-77.0573},{"city":"Cathedral City","lat":33.8362,"lng":-116.4642},{"city":"Rosemead","lat":34.0689,"lng":-118.0823},{"city":"Burien","lat":47.4762,"lng":-122.3394},{"city":"Bozeman","lat":45.6833,"lng":-111.0558},{"city":"Florin","lat":38.4832,"lng":-121.4043},{"city":"Twin Falls","lat":42.5645,"lng":-114.4613},{"city":"Enid","lat":36.4063,"lng":-97.87},{"city":"Country Club","lat":25.9407,"lng":-80.3102},{"city":"Dunwoody","lat":33.9418,"lng":-84.3122},{"city":"Levittown","lat":40.1533,"lng":-74.8531},{"city":"Palm Desert","lat":33.7378,"lng":-116.3695},{"city":"Covina","lat":34.0903,"lng":-117.8818},{"city":"Cuyahoga Falls","lat":41.1641,"lng":-81.5207},{"city":"Lakewood","lat":41.4822,"lng":-81.8008},{"city":"Marana","lat":32.4355,"lng":-111.1558},{"city":"Mishawaka","lat":41.6742,"lng":-86.1666},{"city":"Columbus","lat":39.2093,"lng":-85.9183},{"city":"Troy","lat":42.7354,"lng":-73.6751},{"city":"North Bethesda","lat":39.0393,"lng":-77.1191},{"city":"Milford city ","lat":41.2255,"lng":-73.0625},{"city":"Collierville","lat":35.047,"lng":-89.6987},{"city":"Grapevine","lat":32.9343,"lng":-97.0742},{"city":"Summerville","lat":33.0016,"lng":-80.1799},{"city":"Cypress","lat":33.8171,"lng":-118.0386},{"city":"Downers Grove","lat":41.7949,"lng":-88.0172},{"city":"Murray","lat":40.6498,"lng":-111.8874},{"city":"Catalina Foothills","lat":32.3046,"lng":-110.8838},{"city":"East Honolulu","lat":21.2975,"lng":-157.7211},{"city":"Draper","lat":40.4957,"lng":-111.8605},{"city":"Chesterfield","lat":38.6589,"lng":-90.5803},{"city":"Cerritos","lat":33.8678,"lng":-118.0686},{"city":"Bedford","lat":32.8464,"lng":-97.135},{"city":"St. Louis Park","lat":44.9488,"lng":-93.3649},{"city":"Azusa","lat":34.1386,"lng":-117.9124},{"city":"Euclid","lat":41.5903,"lng":-81.5188},{"city":"McLean","lat":38.9436,"lng":-77.1943},{"city":"Coral Gables","lat":25.7037,"lng":-80.2715},{"city":"Lincoln","lat":38.8774,"lng":-121.2937},{"city":"Jeffersonville","lat":38.3376,"lng":-85.7026},{"city":"Ceres","lat":37.5952,"lng":-120.962},{"city":"Biloxi","lat":30.4426,"lng":-88.9514},{"city":"Lawrence","lat":39.8674,"lng":-85.9904},{"city":"Poway","lat":32.9871,"lng":-117.0201},{"city":"Cedar Hill","lat":32.581,"lng":-96.9591},{"city":"Portage","lat":42.2,"lng":-85.5906},{"city":"Rowland Heights","lat":33.9716,"lng":-117.8912},{"city":"Niagara Falls","lat":43.0921,"lng":-79.0147},{"city":"Dublin","lat":40.1112,"lng":-83.1454},{"city":"El Dorado Hills","lat":38.675,"lng":-121.049},{"city":"Mooresville","lat":35.5847,"lng":-80.8266},{"city":"North Highlands","lat":38.6713,"lng":-121.3721},{"city":"Antelope","lat":38.7153,"lng":-121.361},{"city":"Spring Hill","lat":35.7437,"lng":-86.9116},{"city":"Everett","lat":42.4064,"lng":-71.0545},{"city":"University","lat":28.0771,"lng":-82.4335},{"city":"Roswell","lat":33.373,"lng":-104.5294},{"city":"Leesburg","lat":39.1057,"lng":-77.5544},{"city":"Rancho Santa Margarita","lat":33.6318,"lng":-117.5988},{"city":"Tuckahoe","lat":37.5878,"lng":-77.5858},{"city":"Titusville","lat":28.5727,"lng":-80.8193},{"city":"Glenview","lat":42.0825,"lng":-87.8214},{"city":"Wauwatosa","lat":43.0616,"lng":-88.0347},{"city":"Stillwater","lat":36.1317,"lng":-97.0742},{"city":"Minot","lat":48.2375,"lng":-101.278},{"city":"La Mirada","lat":33.9025,"lng":-118.0093},{"city":"Wilson","lat":35.7311,"lng":-77.9284},{"city":"Newark","lat":37.5201,"lng":-122.0307},{"city":"Roseville","lat":42.5074,"lng":-82.9369},{"city":"East Lansing","lat":42.748,"lng":-84.4836},{"city":"Mentor","lat":41.6893,"lng":-81.3362},{"city":"Bothell","lat":47.7735,"lng":-122.2044},{"city":"San Luis Obispo","lat":35.2669,"lng":-120.669},{"city":"Burleson","lat":32.517,"lng":-97.3344},{"city":"East Providence","lat":41.8065,"lng":-71.3565},{"city":"Middletown","lat":41.5476,"lng":-72.6549},{"city":"Brea","lat":33.9254,"lng":-117.8655},{"city":"Salina","lat":38.8136,"lng":-97.6143},{"city":"Potomac","lat":39.0141,"lng":-77.1943},{"city":"Farmington","lat":36.7555,"lng":-108.1823},{"city":"Sicklerville","lat":39.7452,"lng":-74.9934},{"city":"Ocoee","lat":28.5796,"lng":-81.5332},{"city":"Hilo","lat":19.6883,"lng":-155.0863},{"city":"Oro Valley","lat":32.4208,"lng":-110.9767},{"city":"Fort Pierce","lat":27.4255,"lng":-80.3431},{"city":"Wake Forest","lat":35.9632,"lng":-78.514},{"city":"Beavercreek","lat":39.731,"lng":-84.0624},{"city":"Strongsville","lat":41.3128,"lng":-81.8313},{"city":"Rockwall","lat":32.9169,"lng":-96.4374},{"city":"Attleboro","lat":41.9311,"lng":-71.295},{"city":"Winter Garden","lat":28.5421,"lng":-81.5967},{"city":"Pearl City","lat":21.4031,"lng":-157.9566},{"city":"Haltom City","lat":32.8176,"lng":-97.2707},{"city":"Altamonte Springs","lat":28.6615,"lng":-81.3953},{"city":"Hackensack","lat":40.8891,"lng":-74.0462},{"city":"Westfield","lat":40.0341,"lng":-86.1529},{"city":"Elmhurst","lat":41.8973,"lng":-87.9432},{"city":"Bountiful","lat":40.8721,"lng":-111.8647},{"city":"Littleton","lat":39.5915,"lng":-105.0188},{"city":"Huntsville","lat":30.7009,"lng":-95.5567},{"city":"Cleveland Heights","lat":41.5113,"lng":-81.5636},{"city":"Morgan Hill","lat":37.1325,"lng":-121.6419},{"city":"Keller","lat":32.9335,"lng":-97.2256},{"city":"Kyle","lat":29.9932,"lng":-97.8852},{"city":"Little Elm","lat":33.1858,"lng":-96.9295},{"city":"Whitney","lat":36.1008,"lng":-115.0379},{"city":"Prescott","lat":34.5849,"lng":-112.4473},{"city":"Sayreville","lat":40.4656,"lng":-74.3237},{"city":"Urbandale","lat":41.639,"lng":-93.7812},{"city":"Ashburn","lat":39.0277,"lng":-77.4714},{"city":"Sierra Vista","lat":31.563,"lng":-110.3153},{"city":"Cutler Bay","lat":25.5765,"lng":-80.3356},{"city":"Palm Springs","lat":33.8017,"lng":-116.5382},{"city":"Riverton","lat":40.5176,"lng":-111.9636},{"city":"Lake Ridge","lat":38.6847,"lng":-77.3066},{"city":"North Lauderdale","lat":26.2113,"lng":-80.2209},{"city":"Fairfield","lat":39.3301,"lng":-84.5409},{"city":"West Lafayette","lat":40.4432,"lng":-86.9238},{"city":"Goose Creek","lat":32.9927,"lng":-80.0055},{"city":"Salem","lat":42.5129,"lng":-70.9021},{"city":"Los Banos","lat":37.063,"lng":-120.8406},{"city":"Rohnert Park","lat":38.3479,"lng":-122.6965},{"city":"Fond du Lac","lat":43.7718,"lng":-88.4397},{"city":"Brentwood","lat":35.9918,"lng":-86.7758},{"city":"Freeport","lat":40.6515,"lng":-73.585},{"city":"Lombard","lat":41.8741,"lng":-88.0157},{"city":"Plainfield","lat":41.6207,"lng":-88.2253},{"city":"Lompoc","lat":34.6618,"lng":-120.4714},{"city":"Trujillo Alto","lat":18.3599,"lng":-66.0096},{"city":"Burke","lat":38.7773,"lng":-77.2633},{"city":"Moorhead","lat":46.8673,"lng":-96.7461},{"city":"Oakland Park","lat":26.178,"lng":-80.1528},{"city":"Wilkes-Barre","lat":41.2469,"lng":-75.876},{"city":"Campbell","lat":37.2802,"lng":-121.9539},{"city":"Mankato","lat":44.1715,"lng":-93.9772},{"city":"Pittsfield","lat":42.4517,"lng":-73.2605},{"city":"San Bruno","lat":37.6256,"lng":-122.4313},{"city":"Danville","lat":37.8121,"lng":-121.9698},{"city":"Concord","lat":43.2305,"lng":-71.5595},{"city":"The Colony","lat":33.0925,"lng":-96.8976},{"city":"Odenton","lat":39.0661,"lng":-76.6938},{"city":"Greenacres","lat":26.627,"lng":-80.1371},{"city":"West Babylon","lat":40.7129,"lng":-73.3585},{"city":"Shakopee","lat":44.7745,"lng":-93.4772},{"city":"Linden","lat":40.6251,"lng":-74.2383},{"city":"Altadena","lat":34.1927,"lng":-118.1346},{"city":"North Miami Beach","lat":25.9302,"lng":-80.1659},{"city":"Gallatin","lat":36.3782,"lng":-86.4698},{"city":"Wentzville","lat":38.8153,"lng":-90.8669},{"city":"Hicksville","lat":40.7637,"lng":-73.5245},{"city":"Jefferson City","lat":38.5676,"lng":-92.1759},{"city":"Buffalo Grove","lat":42.1675,"lng":-87.9615},{"city":"Woonsocket","lat":42.001,"lng":-71.4993},{"city":"Oakley","lat":37.9929,"lng":-121.6952},{"city":"Eagle Mountain","lat":40.3137,"lng":-112.0114},{"city":"Catonsville","lat":39.2646,"lng":-76.7424},{"city":"Woodbridge","lat":38.6409,"lng":-77.258},{"city":"Ormond Beach","lat":29.2985,"lng":-81.1014},{"city":"Moline","lat":41.4821,"lng":-90.492},{"city":"Huber Heights","lat":39.8595,"lng":-84.113},{"city":"Edmonds","lat":47.8115,"lng":-122.3533},{"city":"Manassas","lat":38.7479,"lng":-77.4838},{"city":"Danville","lat":36.5831,"lng":-79.4088},{"city":"Pahrump","lat":36.2235,"lng":-115.9974},{"city":"Belleville","lat":38.5164,"lng":-89.99},{"city":"Beverly","lat":42.5681,"lng":-70.8627},{"city":"Midland","lat":43.6241,"lng":-84.2319},{"city":"Coppell","lat":32.9639,"lng":-96.9903},{"city":"Channelview","lat":29.7914,"lng":-95.1144},{"city":"Puyallup","lat":47.1793,"lng":-122.2902},{"city":"Rancho Palos Verdes","lat":33.7554,"lng":-118.3634},{"city":"Coachella","lat":33.6905,"lng":-116.143},{"city":"Linton Hall","lat":38.7551,"lng":-77.575},{"city":"Peachtree Corners","lat":33.967,"lng":-84.232},{"city":"Woodlawn","lat":39.3054,"lng":-76.7489},{"city":"Pine Bluff","lat":34.2116,"lng":-92.0173},{"city":"Spanish Fork","lat":40.1101,"lng":-111.6405},{"city":"Annandale","lat":38.8324,"lng":-77.196},{"city":"Fitchburg","lat":42.5912,"lng":-71.8156},{"city":"Kearny","lat":40.7528,"lng":-74.1202},{"city":"Maplewood","lat":44.9842,"lng":-93.0247},{"city":"Mableton","lat":33.8133,"lng":-84.5655},{"city":"Schertz","lat":29.565,"lng":-98.2535},{"city":"Newnan","lat":33.3767,"lng":-84.7761},{"city":"Clermont","lat":28.5325,"lng":-81.7208},{"city":"North Fort Myers","lat":26.7244,"lng":-81.8485},{"city":"Marlborough","lat":42.3494,"lng":-71.5468},{"city":"Vineyard","lat":38.474,"lng":-121.324},{"city":"Coram","lat":40.8812,"lng":-73.0059},{"city":"Bartlett","lat":41.9804,"lng":-88.2071},{"city":"Hollister","lat":36.8555,"lng":-121.3986},{"city":"Bullhead City","lat":35.1205,"lng":-114.5461},{"city":"Lancaster","lat":32.5922,"lng":-96.7739},{"city":"Grove City","lat":39.8654,"lng":-83.069},{"city":"Marion","lat":42.0451,"lng":-91.585},{"city":"Brookfield","lat":43.064,"lng":-88.1231},{"city":"Delaware","lat":40.2851,"lng":-83.0741},{"city":"Hallandale Beach","lat":25.9854,"lng":-80.1423},{"city":"Woburn","lat":42.4869,"lng":-71.1543},{"city":"Columbia","lat":35.6238,"lng":-87.0484},{"city":"Germantown","lat":35.0829,"lng":-89.7824},{"city":"Shelton","lat":41.306,"lng":-73.1383},{"city":"Covington","lat":39.0334,"lng":-84.5166},{"city":"Westfield","lat":42.1382,"lng":-72.7561},{"city":"Friendswood","lat":29.511,"lng":-95.1981},{"city":"The Acreage","lat":26.774,"lng":-80.2779},{"city":"Essex","lat":39.3021,"lng":-76.4449},{"city":"Culver City","lat":34.0058,"lng":-118.3968},{"city":"Annapolis","lat":38.9706,"lng":-76.5047},{"city":"Duncanville","lat":32.646,"lng":-96.9127},{"city":"Cedar Falls","lat":42.5195,"lng":-92.4536},{"city":"Milton","lat":34.1353,"lng":-84.3139},{"city":"Weslaco","lat":26.1599,"lng":-97.9877},{"city":"Lake Oswego","lat":45.4129,"lng":-122.7004},{"city":"Lancaster","lat":39.7248,"lng":-82.6049},{"city":"Findlay","lat":41.0469,"lng":-83.6379},{"city":"Valley Stream","lat":40.6647,"lng":-73.7043},{"city":"New Berlin","lat":42.9726,"lng":-88.1291},{"city":"Hutchinson","lat":38.0671,"lng":-97.9081},{"city":"Holly Springs","lat":35.6526,"lng":-78.8399},{"city":"French Valley","lat":33.5999,"lng":-117.1069},{"city":"Security-Widefield","lat":38.7489,"lng":-104.7142},{"city":"Hurst","lat":32.8353,"lng":-97.1809},{"city":"Romeoville","lat":41.6318,"lng":-88.0997},{"city":"Crystal Lake","lat":42.2333,"lng":-88.3351},{"city":"Chelsea","lat":42.3959,"lng":-71.0325},{"city":"Waipahu","lat":21.3859,"lng":-158.0101},{"city":"Clinton","lat":38.7499,"lng":-76.9063},{"city":"Meadow Woods","lat":28.3698,"lng":-81.3467},{"city":"Carol Stream","lat":41.9181,"lng":-88.1307},{"city":"Brighton","lat":39.9716,"lng":-104.7963},{"city":"Bell Gardens","lat":33.9663,"lng":-118.155},{"city":"Waxahachie","lat":32.4035,"lng":-96.8446},{"city":"Reynoldsburg","lat":39.9588,"lng":-82.7943},{"city":"Lincoln Park","lat":42.2432,"lng":-83.1811},{"city":"Streamwood","lat":42.0209,"lng":-88.1779},{"city":"Aventura","lat":25.9566,"lng":-80.1371},{"city":"Fort Lee","lat":40.8509,"lng":-73.9713},{"city":"Quincy","lat":39.9336,"lng":-91.3799},{"city":"San Gabriel","lat":34.0949,"lng":-118.099},{"city":"Valrico","lat":27.9193,"lng":-82.2293},{"city":"Indian Trail","lat":35.0699,"lng":-80.6452},{"city":"Park Ridge","lat":42.0125,"lng":-87.8436},{"city":"Hobbs","lat":32.7281,"lng":-103.16},{"city":"Cape Girardeau","lat":37.3109,"lng":-89.5597},{"city":"Oviedo","lat":28.658,"lng":-81.1872},{"city":"Warren","lat":41.239,"lng":-80.8174},{"city":"Plant City","lat":28.014,"lng":-82.1201},{"city":"Urbana","lat":40.1107,"lng":-88.1973},{"city":"Olive Branch","lat":34.961,"lng":-89.8469},{"city":"Keizer","lat":45.0028,"lng":-123.0243},{"city":"Severna Park","lat":39.087,"lng":-76.5687},{"city":"Wheeling","lat":42.1308,"lng":-87.924},{"city":"Roy","lat":41.1714,"lng":-112.0485},{"city":"Issaquah","lat":47.5439,"lng":-122.0471},{"city":"Westerville","lat":40.1241,"lng":-82.921},{"city":"Grants Pass","lat":42.4333,"lng":-123.3317},{"city":"Lynnwood","lat":47.8284,"lng":-122.3033},{"city":"Calexico","lat":32.6849,"lng":-115.4944},{"city":"Mission Bend","lat":29.6948,"lng":-95.6658},{"city":"Royal Palm Beach","lat":26.7038,"lng":-80.2241},{"city":"Land O' Lakes","lat":28.2075,"lng":-82.4476},{"city":"Bettendorf","lat":41.5657,"lng":-90.4765},{"city":"Pacifica","lat":37.6113,"lng":-122.4782},{"city":"Cottage Grove","lat":44.8161,"lng":-92.9274},{"city":"Clovis","lat":34.4376,"lng":-103.1923},{"city":"Vestavia Hills","lat":33.4518,"lng":-86.7437},{"city":"La Presa","lat":32.711,"lng":-117.0027},{"city":"Holyoke","lat":42.2125,"lng":-72.6411},{"city":"Evans","lat":33.5619,"lng":-82.1351},{"city":"La Puente","lat":34.0323,"lng":-117.9533},{"city":"Apache Junction","lat":33.3985,"lng":-111.535},{"city":"Menomonee Falls","lat":43.1487,"lng":-88.1227},{"city":"Phenix City","lat":32.4585,"lng":-85.0253},{"city":"Stanton","lat":33.8003,"lng":-117.9935},{"city":"Post Falls","lat":47.7213,"lng":-116.9384},{"city":"La Vergne","lat":36.02,"lng":-86.5586},{"city":"Parkland","lat":47.1417,"lng":-122.4376},{"city":"East Meadow","lat":40.7197,"lng":-73.5604},{"city":"Mount Juliet","lat":36.199,"lng":-86.5115},{"city":"Hot Springs","lat":34.4892,"lng":-93.0501},{"city":"Winter Springs","lat":28.6889,"lng":-81.2703},{"city":"Monrovia","lat":34.165,"lng":-117.9921},{"city":"Prattville","lat":32.4597,"lng":-86.4573},{"city":"Carpentersville","lat":42.1227,"lng":-88.2896},{"city":"West Fargo","lat":46.8573,"lng":-96.9057},{"city":"Northglenn","lat":39.9108,"lng":-104.9783},{"city":"East Point","lat":33.6696,"lng":-84.4701},{"city":"Tupelo","lat":34.2692,"lng":-88.7318},{"city":"Rosenberg","lat":29.5456,"lng":-95.8223},{"city":"Montclair","lat":34.0715,"lng":-117.6981},{"city":"Peachtree City","lat":33.3942,"lng":-84.571},{"city":"La Quinta","lat":33.6536,"lng":-116.2785},{"city":"Mechanicsville","lat":37.6263,"lng":-77.3561},{"city":"Sun City","lat":33.6165,"lng":-112.2819},{"city":"Richmond West","lat":25.6105,"lng":-80.4297},{"city":"Greenfield","lat":42.9619,"lng":-88.0052},{"city":"Owasso","lat":36.2878,"lng":-95.8311},{"city":"Hanover Park","lat":41.9818,"lng":-88.1446},{"city":"Portage","lat":41.5856,"lng":-87.1797},{"city":"Rock Island","lat":41.4699,"lng":-90.5827},{"city":"Lebanon","lat":36.204,"lng":-86.3481},{"city":"Foothill Farms","lat":38.6867,"lng":-121.3475},{"city":"New Albany","lat":38.309,"lng":-85.8234},{"city":"Martinez","lat":37.9985,"lng":-122.1161},{"city":"Riviera Beach","lat":26.7813,"lng":-80.0741},{"city":"Adelanto","lat":34.5814,"lng":-117.4397},{"city":"Pleasant Grove","lat":40.3716,"lng":-111.7412},{"city":"Leavenworth","lat":39.3239,"lng":-94.924},{"city":"Muskogee","lat":35.7432,"lng":-95.3567},{"city":"Oregon City","lat":45.3418,"lng":-122.5924},{"city":"Bartlesville","lat":36.7365,"lng":-95.9456},{"city":"Saratoga Springs","lat":40.345,"lng":-111.9154},{"city":"Kendall West","lat":25.7065,"lng":-80.4388},{"city":"Richfield","lat":44.8763,"lng":-93.2829},{"city":"Kearns","lat":40.6519,"lng":-112.0095},{"city":"Tucker","lat":33.8436,"lng":-84.2024},{"city":"Elmont","lat":40.7033,"lng":-73.7078},{"city":"Franklin","lat":42.8854,"lng":-88.0104},{"city":"Oakton","lat":38.8887,"lng":-77.3016},{"city":"Lewiston","lat":44.0915,"lng":-70.1681},{"city":"South Valley","lat":35.0093,"lng":-106.6819},{"city":"Beloit","lat":42.523,"lng":-89.0184},{"city":"Upper Arlington","lat":40.0272,"lng":-83.0704},{"city":"DeLand","lat":29.0225,"lng":-81.2875},{"city":"Temple City","lat":34.1022,"lng":-118.0579},{"city":"Wildomar","lat":33.6173,"lng":-117.2582},{"city":"Chillum","lat":38.9666,"lng":-76.9791},{"city":"Princeton","lat":25.5396,"lng":-80.3971},{"city":"Claremont","lat":34.1259,"lng":-117.7153},{"city":"Winchester","lat":36.1365,"lng":-115.137},{"city":"Central Islip","lat":40.7836,"lng":-73.1945},{"city":"Georgetown","lat":38.2247,"lng":-84.5487},{"city":"Oak Creek","lat":42.8803,"lng":-87.9009},{"city":"Commack","lat":40.8435,"lng":-73.2833},{"city":"South Miami Heights","lat":25.5886,"lng":-80.3862},{"city":"Moorpark","lat":34.2861,"lng":-118.8768},{"city":"Merrillville","lat":41.4728,"lng":-87.3196},{"city":"Estero","lat":26.4276,"lng":-81.7951},{"city":"Egypt Lake-Leto","lat":28.0177,"lng":-82.5062},{"city":"Roseville","lat":45.0155,"lng":-93.1545},{"city":"Dunedin","lat":28.0329,"lng":-82.7862},{"city":"Farmers Branch","lat":32.9272,"lng":-96.8804},{"city":"Calumet City","lat":41.6134,"lng":-87.5505},{"city":"Marion","lat":40.5973,"lng":-83.1227},{"city":"Addison","lat":41.9313,"lng":-88.0085},{"city":"Buenaventura Lakes","lat":28.3349,"lng":-81.3539},{"city":"Westmont","lat":33.9417,"lng":-118.3018},{"city":"Lauderdale Lakes","lat":26.1682,"lng":-80.2017},{"city":"Richmond","lat":39.8318,"lng":-84.8905},{"city":"Carrollwood","lat":28.0577,"lng":-82.5148},{"city":"Olney","lat":39.1465,"lng":-77.0715},{"city":"Orangevale","lat":38.6881,"lng":-121.2209},{"city":"West Hollywood","lat":34.0883,"lng":-118.3719},{"city":"Randallstown","lat":39.3723,"lng":-76.8024},{"city":"Gahanna","lat":40.0251,"lng":-82.8637},{"city":"Meridian","lat":32.3846,"lng":-88.6896},{"city":"Norristown","lat":40.1225,"lng":-75.3398},{"city":"Manhattan Beach","lat":33.8894,"lng":-118.3967},{"city":"La Porte","lat":29.6689,"lng":-95.0484},{"city":"Inver Grove Heights","lat":44.8247,"lng":-93.0596},{"city":"Hilliard","lat":40.0353,"lng":-83.1578},{"city":"Sun Prairie","lat":43.1825,"lng":-89.2362},{"city":"Copperas Cove","lat":31.1192,"lng":-97.914},{"city":"Torrington","lat":41.8349,"lng":-73.1282},{"city":"El Mirage","lat":33.5905,"lng":-112.3271},{"city":"Wildwood","lat":38.58,"lng":-90.6698},{"city":"San Juan","lat":26.1903,"lng":-98.152},{"city":"Oakville","lat":38.4479,"lng":-90.3199},{"city":"San Juan Capistrano","lat":33.5008,"lng":-117.6544},{"city":"Midvale","lat":40.6148,"lng":-111.8927},{"city":"San Luis","lat":32.4911,"lng":-114.7089},{"city":"Brunswick","lat":41.2465,"lng":-81.8198},{"city":"Salisbury","lat":35.6658,"lng":-80.4905},{"city":"Tooele","lat":40.5393,"lng":-112.3082},{"city":"Watertown Town","lat":42.37,"lng":-71.1774},{"city":"Owings Mills","lat":39.4115,"lng":-76.7913},{"city":"Greer","lat":34.933,"lng":-82.2313},{"city":"Lake Stevens","lat":48.0024,"lng":-122.0953},{"city":"Northbrook","lat":42.1292,"lng":-87.8352},{"city":"College Park","lat":38.996,"lng":-76.9337},{"city":"University City","lat":38.6657,"lng":-90.3315},{"city":"North Ridgeville","lat":41.3852,"lng":-82.0195},{"city":"Del Rio","lat":29.3708,"lng":-100.8801},{"city":"Fair Lawn","lat":40.9359,"lng":-74.1177},{"city":"Long Beach","lat":40.5887,"lng":-73.666},{"city":"Goshen","lat":41.5743,"lng":-85.8309},{"city":"San Dimas","lat":34.1082,"lng":-117.809},{"city":"Springville","lat":40.1638,"lng":-111.6205},{"city":"Benton","lat":34.5776,"lng":-92.5713},{"city":"Hinesville","lat":31.8248,"lng":-81.6137},{"city":"Socorro","lat":31.6383,"lng":-106.2601},{"city":"Spanaway","lat":47.0979,"lng":-122.4233},{"city":"Richmond","lat":37.7307,"lng":-84.2925},{"city":"Pleasant Hill","lat":37.9539,"lng":-122.0759},{"city":"University Place","lat":47.2147,"lng":-122.5461},{"city":"Stow","lat":41.1765,"lng":-81.4344},{"city":"Kaneohe","lat":21.4062,"lng":-157.7904},{"city":"Montgomery Village","lat":39.1788,"lng":-77.1954},{"city":"Fruit Cove","lat":30.0972,"lng":-81.6175},{"city":"Monroe","lat":35.0063,"lng":-80.5596},{"city":"Fair Oaks","lat":38.8653,"lng":-77.3586},{"city":"Douglasville","lat":33.7384,"lng":-84.7054},{"city":"Fairborn","lat":39.801,"lng":-84.0094},{"city":"Butte","lat":45.902,"lng":-112.6571},{"city":"Dakota Ridge","lat":39.6192,"lng":-105.1344},{"city":"Oildale","lat":35.4293,"lng":-119.0306},{"city":"Mason","lat":39.3571,"lng":-84.3023},{"city":"Oswego","lat":41.6834,"lng":-88.3372},{"city":"Gadsden","lat":34.0086,"lng":-86.0157},{"city":"Plainfield","lat":39.6954,"lng":-86.3716},{"city":"Manitowoc","lat":44.0991,"lng":-87.6812},{"city":"Lufkin","lat":31.3217,"lng":-94.7277},{"city":"Cedar City","lat":37.6834,"lng":-113.0956},{"city":"Deer Park","lat":29.6898,"lng":-95.1151},{"city":"McMinnville","lat":45.211,"lng":-123.1918},{"city":"Woodridge","lat":41.737,"lng":-88.0409},{"city":"Eastpointe","lat":42.4657,"lng":-82.9461},{"city":"Prairieville","lat":30.3151,"lng":-90.9571},{"city":"New City","lat":41.1542,"lng":-73.9912},{"city":"Cookeville","lat":36.1482,"lng":-85.5109},{"city":"Huntington Station","lat":40.8446,"lng":-73.405},{"city":"Westlake","lat":41.4524,"lng":-81.9294},{"city":"Merritt Island","lat":28.3139,"lng":-80.6708},{"city":"Lewiston","lat":46.3934,"lng":-116.9933},{"city":"Golden Glades","lat":25.9129,"lng":-80.2013},{"city":"Bell","lat":33.9801,"lng":-118.1798},{"city":"Midlothian","lat":32.4669,"lng":-96.989},{"city":"Ken Caryl","lat":39.577,"lng":-105.1144},{"city":"Cooper City","lat":26.0463,"lng":-80.2862},{"city":"Woodstock","lat":34.1026,"lng":-84.5091},{"city":"Martinez","lat":33.5209,"lng":-82.0985},{"city":"South Riding","lat":38.912,"lng":-77.5132},{"city":"Valparaiso","lat":41.4783,"lng":-87.0506},{"city":"Parkland","lat":26.3219,"lng":-80.2533},{"city":"Walla Walla","lat":46.0671,"lng":-118.3368},{"city":"Leawood","lat":38.9075,"lng":-94.6258},{"city":"Graham","lat":47.0322,"lng":-122.2827},{"city":"Rexburg","lat":43.8226,"lng":-111.7919},{"city":"Menlo Park","lat":37.4685,"lng":-122.1673},{"city":"Cottonwood Heights","lat":40.6137,"lng":-111.8144},{"city":"Kearney","lat":40.7011,"lng":-99.0833},{"city":"Pikesville","lat":39.3893,"lng":-76.702},{"city":"Sahuarita","lat":31.9323,"lng":-110.9654},{"city":"Crown Point","lat":41.4143,"lng":-87.3457},{"city":"Foster City","lat":37.5553,"lng":-122.2659},{"city":"Timberwood Park","lat":29.6995,"lng":-98.4838},{"city":"Englewood","lat":39.6468,"lng":-104.9942},{"city":"Glendale Heights","lat":41.9196,"lng":-88.0785},{"city":"Bethel Park","lat":40.3238,"lng":-80.0364},{"city":"Baldwin","lat":40.6511,"lng":-73.6075},{"city":"Dana Point","lat":33.4733,"lng":-117.6967},{"city":"Los Gatos","lat":37.2304,"lng":-121.9562},{"city":"Brooklyn Center","lat":45.0681,"lng":-93.3162},{"city":"West Little River","lat":25.8571,"lng":-80.2367},{"city":"Petersburg","lat":37.2043,"lng":-77.3913},{"city":"Goldsboro","lat":35.3778,"lng":-77.9717},{"city":"Redmond","lat":44.2612,"lng":-121.181},{"city":"Fuquay-Varina","lat":35.5953,"lng":-78.7778},{"city":"Alabaster","lat":33.2198,"lng":-86.8225},{"city":"Gillette","lat":44.2752,"lng":-105.4982},{"city":"Kennesaw","lat":34.026,"lng":-84.6177},{"city":"Fallbrook","lat":33.3693,"lng":-117.2259},{"city":"Pueblo West","lat":38.3465,"lng":-104.7246},{"city":"Pullman","lat":46.7336,"lng":-117.168},{"city":"Spring Valley","lat":41.1151,"lng":-74.0486},{"city":"St. Charles","lat":41.9193,"lng":-88.3109},{"city":"Beverly Hills","lat":34.0786,"lng":-118.4021},{"city":"Spring Valley","lat":32.7317,"lng":-116.9766},{"city":"American Fork","lat":40.3783,"lng":-111.7953},{"city":"Chester","lat":39.8456,"lng":-75.3718},{"city":"Uniondale","lat":40.7176,"lng":-73.5947},{"city":"Elk Grove Village","lat":42.0064,"lng":-87.9921},{"city":"East Lake","lat":28.1206,"lng":-82.6868},{"city":"Redan","lat":33.7394,"lng":-84.1644},{"city":"Goleta","lat":34.4361,"lng":-119.8594},{"city":"Des Moines","lat":47.3914,"lng":-122.3156},{"city":"Sherwood","lat":34.8507,"lng":-92.2029},{"city":"Kiryas Joel","lat":41.3411,"lng":-74.1667},{"city":"Garfield","lat":40.8791,"lng":-74.1085},{"city":"Andover","lat":45.2571,"lng":-93.3265},{"city":"Kaysville","lat":41.029,"lng":-111.9456},{"city":"Statesboro","lat":32.4375,"lng":-81.7751},{"city":"Pekin","lat":40.5678,"lng":-89.6251},{"city":"Franklin Square","lat":40.7002,"lng":-73.6775},{"city":"North Olmsted","lat":41.4149,"lng":-81.919},{"city":"Nacogdoches","lat":31.6134,"lng":-94.6528},{"city":"Canton","lat":34.2467,"lng":-84.4897},{"city":"Wheat Ridge","lat":39.7728,"lng":-105.1028},{"city":"Harker Heights","lat":31.0572,"lng":-97.6446},{"city":"Rochester","lat":43.299,"lng":-70.9787},{"city":"Rome","lat":43.226,"lng":-75.4909},{"city":"Juneau","lat":58.4546,"lng":-134.1739},{"city":"Kingman","lat":35.217,"lng":-114.0105},{"city":"Massillon","lat":40.7838,"lng":-81.5254},{"city":"Savage","lat":44.7545,"lng":-93.3632},{"city":"Helena","lat":46.5965,"lng":-112.0202},{"city":"Lawndale","lat":33.8884,"lng":-118.3531},{"city":"Desert Hot Springs","lat":33.955,"lng":-116.5429},{"city":"Centereach","lat":40.8681,"lng":-73.0821},{"city":"San Pablo","lat":37.9629,"lng":-122.3426},{"city":"Windsor","lat":40.469,"lng":-104.9198},{"city":"O'Fallon","lat":38.5974,"lng":-89.9148},{"city":"Marrero","lat":29.8871,"lng":-90.1126},{"city":"West Odessa","lat":31.8389,"lng":-102.5003},{"city":"Bangor","lat":44.8323,"lng":-68.7906},{"city":"Ithaca","lat":42.4442,"lng":-76.5032},{"city":"Clearfield","lat":41.103,"lng":-112.0238},{"city":"Springfield","lat":38.781,"lng":-77.1839},{"city":"Fair Oaks","lat":38.6504,"lng":-121.2496},{"city":"Holladay","lat":40.66,"lng":-111.8226},{"city":"Long Branch","lat":40.2965,"lng":-73.9915},{"city":"Syracuse","lat":41.0859,"lng":-112.0698},{"city":"Dania Beach","lat":26.0593,"lng":-80.1637},{"city":"Florence","lat":38.9899,"lng":-84.6471},{"city":"Mundelein","lat":42.2693,"lng":-88.0102},{"city":"Naugatuck","lat":41.489,"lng":-73.0518},{"city":"Pasadena","lat":39.1552,"lng":-76.5537},{"city":"Los Altos","lat":37.3684,"lng":-122.0965},{"city":"Carlsbad","lat":32.401,"lng":-104.2388},{"city":"Aiken","lat":33.5303,"lng":-81.7271},{"city":"Duluth","lat":34.0053,"lng":-84.1492},{"city":"Laramie","lat":41.3099,"lng":-105.6085},{"city":"Cibolo","lat":29.5634,"lng":-98.2115},{"city":"Bay Shore","lat":40.7288,"lng":-73.2495},{"city":"La Verne","lat":34.1207,"lng":-117.7703},{"city":"Laguna Hills","lat":33.5918,"lng":-117.6991},{"city":"Atwater","lat":37.3529,"lng":-120.5959},{"city":"Newark","lat":39.6776,"lng":-75.7576},{"city":"Port Chester","lat":41.0051,"lng":-73.668},{"city":"Maryville","lat":35.7468,"lng":-83.9789},{"city":"Shawnee","lat":35.3531,"lng":-96.9647},{"city":"Lake Magdalene","lat":28.0875,"lng":-82.4791},{"city":"Sterling","lat":39.0052,"lng":-77.405},{"city":"Alamogordo","lat":32.8837,"lng":-105.9625},{"city":"Saratoga","lat":37.2684,"lng":-122.0263},{"city":"Oceanside","lat":40.6328,"lng":-73.6364},{"city":"North Royalton","lat":41.3138,"lng":-81.745},{"city":"Burlingame","lat":37.5859,"lng":-122.3667},{"city":"Lakeside","lat":30.1356,"lng":-81.7674},{"city":"Oak Ridge","lat":35.9639,"lng":-84.2938},{"city":"Nicholasville","lat":37.8906,"lng":-84.5668},{"city":"New Bern","lat":35.0955,"lng":-77.0723},{"city":"LaGrange","lat":33.0274,"lng":-85.0384},{"city":"West Falls Church","lat":38.8648,"lng":-77.1878},{"city":"Ballwin","lat":38.595,"lng":-90.55},{"city":"Cleburne","lat":32.3568,"lng":-97.4151},{"city":"Niles","lat":42.0278,"lng":-87.8099},{"city":"Bel Air North","lat":39.5543,"lng":-76.3732},{"city":"Westfield","lat":40.6516,"lng":-74.3432},{"city":"Orcutt","lat":34.8691,"lng":-120.4222},{"city":"Cornelius","lat":35.4724,"lng":-80.8813},{"city":"SeaTac","lat":47.4444,"lng":-122.2986},{"city":"Garner","lat":35.6936,"lng":-78.6181},{"city":"Gurnee","lat":42.3708,"lng":-87.9392},{"city":"Opelika","lat":32.6612,"lng":-85.3769},{"city":"Parkville","lat":39.3832,"lng":-76.5519},{"city":"Hopkinsville","lat":36.8381,"lng":-87.4775},{"city":"Southlake","lat":32.9545,"lng":-97.1503},{"city":"San Carlos","lat":37.4982,"lng":-122.2677},{"city":"Santa Paula","lat":34.3545,"lng":-119.0656},{"city":"Princeton","lat":40.3562,"lng":-74.6693},{"city":"Bowling Green","lat":41.3776,"lng":-83.6495},{"city":"Milford Mill","lat":39.3444,"lng":-76.7668},{"city":"Canyon Lake","lat":29.8761,"lng":-98.2611},{"city":"North Chicago","lat":42.3172,"lng":-87.8595},{"city":"Middle River","lat":39.3436,"lng":-76.4253},{"city":"Drexel Heights","lat":32.1453,"lng":-111.048},{"city":"North Tonawanda","lat":43.0457,"lng":-78.8659},{"city":"Miami Lakes","lat":25.9125,"lng":-80.3214},{"city":"Ferry Pass","lat":30.5205,"lng":-87.1899},{"city":"San Lorenzo","lat":37.6733,"lng":-122.1332},{"city":"Granger","lat":41.7374,"lng":-86.1348},{"city":"Morristown","lat":36.2043,"lng":-83.3001},{"city":"Weatherford","lat":32.7536,"lng":-97.7723},{"city":"Northport","lat":33.2586,"lng":-87.5993},{"city":"Lawrenceville","lat":33.9523,"lng":-83.9932},{"city":"Galesburg","lat":40.9506,"lng":-90.3763},{"city":"Zionsville","lat":39.9897,"lng":-86.3182},{"city":"Highland Park","lat":42.1823,"lng":-87.8104},{"city":"Austintown","lat":41.0932,"lng":-80.7405},{"city":"Greenville","lat":33.385,"lng":-91.0514},{"city":"Liberty","lat":39.2394,"lng":-94.4191},{"city":"Middletown","lat":41.4459,"lng":-74.4236},{"city":"Sanford","lat":35.4875,"lng":-79.177},{"city":"Monterey","lat":36.5919,"lng":-121.8808},{"city":"East Lake-Orient Park","lat":27.997,"lng":-82.3653},{"city":"Southgate","lat":42.2047,"lng":-83.2057},{"city":"Eastern Goleta Valley","lat":34.4448,"lng":-119.7879},{"city":"Chamblee","lat":33.8842,"lng":-84.3007},{"city":"Raytown","lat":38.9944,"lng":-94.4641},{"city":"East Palo Alto","lat":37.4671,"lng":-122.1352},{"city":"Carney","lat":39.405,"lng":-76.5235},{"city":"Algonquin","lat":42.1629,"lng":-88.3159},{"city":"Bella Vista","lat":36.4667,"lng":-94.2707},{"city":"Gloucester","lat":42.626,"lng":-70.6897},{"city":"Crofton","lat":39.0144,"lng":-76.68},{"city":"Atascadero","lat":35.4827,"lng":-120.6858},{"city":"Central","lat":30.5593,"lng":-91.0369},{"city":"Oak Park","lat":42.4649,"lng":-83.1824},{"city":"New Smyrna Beach","lat":29.0249,"lng":-80.9652},{"city":"Winter Park","lat":28.5989,"lng":-81.3442},{"city":"Eagle","lat":43.7223,"lng":-116.3866},{"city":"Banning","lat":33.946,"lng":-116.8992},{"city":"Garfield Heights","lat":41.4199,"lng":-81.6038},{"city":"Rahway","lat":40.6077,"lng":-74.2807},{"city":"Melrose","lat":42.4556,"lng":-71.059},{"city":"Danville","lat":40.1426,"lng":-87.6111},{"city":"Burton","lat":42.9974,"lng":-83.6175},{"city":"Hobart","lat":41.514,"lng":-87.2729},{"city":"Fleming Island","lat":30.0988,"lng":-81.7124},{"city":"Fountain","lat":38.6886,"lng":-104.6829},{"city":"Texarkana","lat":33.436,"lng":-93.9959},{"city":"Laurel","lat":39.0949,"lng":-76.8622},{"city":"Suisun City","lat":38.2473,"lng":-122.0091},{"city":"Fridley","lat":45.0841,"lng":-93.2595},{"city":"Matthews","lat":35.1195,"lng":-80.7101},{"city":"Lakewood Ranch","lat":27.4185,"lng":-82.3948},{"city":"Jacksonville","lat":34.8807,"lng":-92.1304},{"city":"Schererville","lat":41.4861,"lng":-87.4442},{"city":"Northampton","lat":42.3266,"lng":-72.6745},{"city":"Erie","lat":40.0404,"lng":-105.0399},{"city":"Fitchburg","lat":42.9859,"lng":-89.4255},{"city":"Hazleton","lat":40.9505,"lng":-75.9725},{"city":"Paragould","lat":36.0555,"lng":-90.5149},{"city":"Burbank","lat":41.7444,"lng":-87.7686},{"city":"Seguin","lat":29.5891,"lng":-97.9676},{"city":"Bethany","lat":45.5614,"lng":-122.837},{"city":"Golden Gate","lat":26.1844,"lng":-81.7031},{"city":"Kirkwood","lat":38.5788,"lng":-90.4203},{"city":"Shaker Heights","lat":41.4744,"lng":-81.5496},{"city":"Perry Hall","lat":39.4068,"lng":-76.478},{"city":"Englewood","lat":40.8917,"lng":-73.9736},{"city":"Laplace","lat":30.0731,"lng":-90.4758},{"city":"Magna","lat":40.7634,"lng":-112.1599},{"city":"East Niles","lat":35.3683,"lng":-118.9225},{"city":"Russellville","lat":35.2762,"lng":-93.1383},{"city":"Lake in the Hills","lat":42.1913,"lng":-88.3477},{"city":"Lansing","lat":41.5648,"lng":-87.5462},{"city":"Summerlin South","lat":36.1242,"lng":-115.3324},{"city":"New Iberia","lat":30.0049,"lng":-91.8202},{"city":"Prosper","lat":33.2394,"lng":-96.8087},{"city":"Morrisville","lat":35.8368,"lng":-78.8348},{"city":"Jamestown","lat":42.0976,"lng":-79.2367},{"city":"Oakleaf Plantation","lat":30.1689,"lng":-81.8337},{"city":"Jeffersontown","lat":38.2049,"lng":-85.5701},{"city":"Casselberry","lat":28.6624,"lng":-81.3217},{"city":"Madison Heights","lat":42.5073,"lng":-83.1034},{"city":"Mehlville","lat":38.5018,"lng":-90.3149},{"city":"Walnut","lat":34.0334,"lng":-117.8593},{"city":"Harrison","lat":41.0236,"lng":-73.7193},{"city":"Monroeville","lat":40.4262,"lng":-79.7605},{"city":"McDonough","lat":33.4397,"lng":-84.1505},{"city":"Stockbridge","lat":33.5254,"lng":-84.2295},{"city":"Drexel Hill","lat":39.9495,"lng":-75.3038},{"city":"Glen Ellyn","lat":41.8666,"lng":-88.0629},{"city":"Aberdeen","lat":45.4649,"lng":-98.4686},{"city":"Frankfort","lat":38.1924,"lng":-84.8643},{"city":"Allen Park","lat":42.2595,"lng":-83.2107},{"city":"Brownsburg","lat":39.8337,"lng":-86.383},{"city":"Orchards","lat":45.689,"lng":-122.5306},{"city":"Eagle Pass","lat":28.7125,"lng":-100.484},{"city":"Forest Hills","lat":42.9577,"lng":-85.4895},{"city":"Bergenfield","lat":40.9236,"lng":-73.9982},{"city":"Independence","lat":38.951,"lng":-84.5492},{"city":"Enterprise","lat":31.3275,"lng":-85.8463},{"city":"Henderson","lat":37.8397,"lng":-87.5798},{"city":"Glen Cove","lat":40.8709,"lng":-73.6287},{"city":"Maryland Heights","lat":38.7189,"lng":-90.4749},{"city":"Greenville","lat":33.1116,"lng":-96.1099},{"city":"Ewa Gentry","lat":21.3344,"lng":-158.0262},{"city":"Belmont","lat":37.5154,"lng":-122.2953},{"city":"Bixby","lat":35.9454,"lng":-95.8776},{"city":"Lathrop","lat":37.809,"lng":-121.3131},{"city":"Shirley","lat":40.7936,"lng":-72.8748},{"city":"Garden City","lat":37.9753,"lng":-100.8527},{"city":"Oakdale","lat":44.9876,"lng":-92.9641},{"city":"South Laurel","lat":39.0603,"lng":-76.8456},{"city":"Ridgecrest","lat":35.6308,"lng":-117.6622},{"city":"Mililani Town","lat":21.4465,"lng":-158.0147},{"city":"Millville","lat":39.3903,"lng":-75.0561},{"city":"Kahului","lat":20.8715,"lng":-156.4603},{"city":"Reisterstown","lat":39.455,"lng":-76.814},{"city":"Kent","lat":41.149,"lng":-81.361},{"city":"Williamsport","lat":41.2399,"lng":-77.037},{"city":"Dodge City","lat":37.7611,"lng":-100.0182},{"city":"Wilmette","lat":42.0771,"lng":-87.7282},{"city":"Easton","lat":40.6858,"lng":-75.2209},{"city":"Chicago Heights","lat":41.51,"lng":-87.6345},{"city":"Clinton","lat":32.354,"lng":-90.3403},{"city":"Tualatin","lat":45.3772,"lng":-122.7748},{"city":"Statesville","lat":35.7842,"lng":-80.8713},{"city":"Marion","lat":40.5497,"lng":-85.6604},{"city":"Washington","lat":37.1303,"lng":-113.4878},{"city":"Immokalee","lat":26.4253,"lng":-81.4251},{"city":"Maple Valley","lat":47.3659,"lng":-122.0368},{"city":"Bluffton","lat":32.2135,"lng":-80.9316},{"city":"New London","lat":41.3502,"lng":-72.1022},{"city":"Mount Pleasant","lat":42.7129,"lng":-87.8876},{"city":"Marshalltown","lat":42.0343,"lng":-92.9068},{"city":"West Islip","lat":40.7041,"lng":-73.2954},{"city":"Hamtramck","lat":42.3954,"lng":-83.0559},{"city":"Temescal Valley","lat":33.7581,"lng":-117.4677},{"city":"Lemon Grove","lat":32.7331,"lng":-117.0344},{"city":"Ilchester","lat":39.2187,"lng":-76.7683},{"city":"Wasco","lat":35.5938,"lng":-119.3671},{"city":"Rockledge","lat":28.3203,"lng":-80.736},{"city":"Chaska","lat":44.8164,"lng":-93.6091},{"city":"Madison","lat":32.4738,"lng":-90.13},{"city":"Oak Forest","lat":41.6054,"lng":-87.7527},{"city":"Citrus Park","lat":28.073,"lng":-82.5628},{"city":"Ramsey","lat":45.2617,"lng":-93.4494},{"city":"Mason City","lat":43.1487,"lng":-93.1997},{"city":"Balch Springs","lat":32.7194,"lng":-96.6151},{"city":"Williston","lat":48.1814,"lng":-103.6364},{"city":"Converse","lat":29.5091,"lng":-98.3084},{"city":"Monsey","lat":41.1181,"lng":-74.0682},{"city":"Clarksburg","lat":39.2246,"lng":-77.2659},{"city":"Granite City","lat":38.7296,"lng":-90.1268},{"city":"Short Pump","lat":37.6549,"lng":-77.6201},{"city":"Huntley","lat":42.1599,"lng":-88.433},{"city":"Garden City","lat":42.3244,"lng":-83.3412},{"city":"Green","lat":40.9483,"lng":-81.4757},{"city":"Fremont","lat":41.4395,"lng":-96.4873},{"city":"Prior Lake","lat":44.7246,"lng":-93.4419},{"city":"McHenry","lat":42.3387,"lng":-88.2932},{"city":"Neenah","lat":44.1669,"lng":-88.4767},{"city":"Benicia","lat":38.0725,"lng":-122.1526},{"city":"Twentynine Palms","lat":34.1478,"lng":-116.0659},{"city":"West Linn","lat":45.367,"lng":-122.6399},{"city":"Lindenhurst","lat":40.6858,"lng":-73.371},{"city":"Plum","lat":40.5024,"lng":-79.7495},{"city":"Daphne","lat":30.6263,"lng":-87.8816},{"city":"Pearl","lat":32.273,"lng":-90.0918},{"city":"Lochearn","lat":39.3461,"lng":-76.7307},{"city":"Alvin","lat":29.3872,"lng":-95.2938},{"city":"Hutto","lat":30.5396,"lng":-97.544},{"city":"Holbrook","lat":40.7944,"lng":-73.07},{"city":"New Lenox","lat":41.5095,"lng":-87.9703},{"city":"Thomasville","lat":35.8813,"lng":-80.0807},{"city":"Crestview","lat":30.7477,"lng":-86.5785},{"city":"Sun City Center","lat":27.715,"lng":-82.3569},{"city":"Auburn","lat":42.9338,"lng":-76.5685},{"city":"Shoreview","lat":45.0842,"lng":-93.1358},{"city":"South Pasadena","lat":34.1103,"lng":-118.1573},{"city":"Gladstone","lat":39.2134,"lng":-94.5592},{"city":"Deer Park","lat":40.7623,"lng":-73.3218},{"city":"Sachse","lat":32.9726,"lng":-96.5793},{"city":"Key West","lat":24.5642,"lng":-81.7775},{"city":"Carrollton","lat":33.5818,"lng":-85.0838},{"city":"Eureka","lat":40.7943,"lng":-124.1564},{"city":"Wooster","lat":40.8172,"lng":-81.9336},{"city":"Asheboro","lat":35.7158,"lng":-79.8127},{"city":"Fortuna Foothills","lat":32.6616,"lng":-114.3974},{"city":"Vernon Hills","lat":42.234,"lng":-87.9608},{"city":"Leisure City","lat":25.4935,"lng":-80.4363},{"city":"Plainview","lat":40.7832,"lng":-73.4732},{"city":"Paramus","lat":40.9455,"lng":-74.0712},{"city":"Lemoore","lat":36.2949,"lng":-119.7983},{"city":"Horn Lake","lat":34.9512,"lng":-90.0501},{"city":"Palm Springs","lat":26.6348,"lng":-80.0969},{"city":"Superior","lat":46.6941,"lng":-92.0823},{"city":"Temple Terrace","lat":28.0436,"lng":-82.3773},{"city":"Windsor","lat":38.5422,"lng":-122.8089},{"city":"Ruskin","lat":27.7065,"lng":-82.4209},{"city":"Haines City","lat":28.1102,"lng":-81.6157},{"city":"East Chicago","lat":41.6469,"lng":-87.4545},{"city":"Brawley","lat":32.9783,"lng":-115.5287},{"city":"South Portland","lat":43.631,"lng":-70.2895},{"city":"Sanger","lat":36.699,"lng":-119.5575},{"city":"Cabot","lat":34.9766,"lng":-92.0274},{"city":"Kernersville","lat":36.1065,"lng":-80.0842},{"city":"Suitland","lat":38.8492,"lng":-76.9225},{"city":"Imperial Beach","lat":32.5693,"lng":-117.118},{"city":"Owatonna","lat":44.0912,"lng":-93.2312},{"city":"Sun City West","lat":33.6695,"lng":-112.3573},{"city":"West Whittier-Los Nietos","lat":33.9759,"lng":-118.0689},{"city":"Union City","lat":33.5942,"lng":-84.5629},{"city":"Batavia","lat":41.8479,"lng":-88.3109},{"city":"Paducah","lat":37.0711,"lng":-88.644},{"city":"Mint Hill","lat":35.1783,"lng":-80.6528},{"city":"Homewood","lat":33.4619,"lng":-86.809},{"city":"Big Spring","lat":32.2389,"lng":-101.4799},{"city":"Winona","lat":44.0505,"lng":-91.6684},{"city":"Norco","lat":33.9252,"lng":-117.5498},{"city":"Bessemer","lat":33.3712,"lng":-86.9728},{"city":"Tysons","lat":38.9215,"lng":-77.2273},{"city":"Troy","lat":40.0437,"lng":-84.2186},{"city":"South Salt Lake","lat":40.7057,"lng":-111.8986},{"city":"Lockport","lat":41.5906,"lng":-88.0293},{"city":"Hercules","lat":38.0064,"lng":-122.2564},{"city":"Austin","lat":43.6721,"lng":-92.9784},{"city":"Medina","lat":41.1358,"lng":-81.8695},{"city":"Ridgewood","lat":40.9821,"lng":-74.1127},{"city":"Lodi","lat":40.8784,"lng":-74.0814},{"city":"Oak Ridge","lat":28.4727,"lng":-81.4169},{"city":"Grandview","lat":38.8802,"lng":-94.5227},{"city":"Columbine","lat":39.5879,"lng":-105.0694},{"city":"El Cerrito","lat":37.9196,"lng":-122.3025},{"city":"Wilsonville","lat":45.3109,"lng":-122.7702},{"city":"West Chicago","lat":41.896,"lng":-88.2253},{"city":"Woodburn","lat":45.1472,"lng":-122.8603},{"city":"Coral Terrace","lat":25.7464,"lng":-80.3049},{"city":"Oxford","lat":34.3627,"lng":-89.5336},{"city":"Inkster","lat":42.2935,"lng":-83.3148},{"city":"Fort Washington","lat":38.7339,"lng":-77.0069},{"city":"Woodstock","lat":42.3096,"lng":-88.4353},{"city":"Colleyville","lat":32.8913,"lng":-97.1486},{"city":"Camas","lat":45.6005,"lng":-122.4304},{"city":"Rockville Centre","lat":40.6643,"lng":-73.6383},{"city":"West Melbourne","lat":28.0694,"lng":-80.6736},{"city":"Forest Grove","lat":45.5243,"lng":-123.1097},{"city":"Holt","lat":42.6416,"lng":-84.5308},{"city":"Stevens Point","lat":44.5241,"lng":-89.5507},{"city":"North Tustin","lat":33.7636,"lng":-117.7947},{"city":"Ives Estates","lat":25.9632,"lng":-80.183},{"city":"Chanhassen","lat":44.8546,"lng":-93.5621},{"city":"Cloverleaf","lat":29.7882,"lng":-95.1724},{"city":"Mill Creek East","lat":47.8361,"lng":-122.1877},{"city":"Ladera Ranch","lat":33.5492,"lng":-117.6417},{"city":"Cliffside Park","lat":40.8222,"lng":-73.9879},{"city":"Rosemount","lat":44.7466,"lng":-93.0661},{"city":"Mercer Island","lat":47.5661,"lng":-122.232},{"city":"Palm River-Clair Mel","lat":27.9239,"lng":-82.3791},{"city":"Clayton","lat":35.659,"lng":-78.4498},{"city":"Palm City","lat":27.1735,"lng":-80.2862},{"city":"Maywood","lat":33.9886,"lng":-118.1877},{"city":"Elk River","lat":45.3314,"lng":-93.567},{"city":"Hazelwood","lat":38.7931,"lng":-90.3899},{"city":"Melrose Park","lat":41.903,"lng":-87.8636},{"city":"Kingsville","lat":27.5094,"lng":-97.861},{"city":"Xenia","lat":39.6829,"lng":-83.9413},{"city":"Keystone","lat":28.1312,"lng":-82.5999},{"city":"Terrytown","lat":29.9014,"lng":-90.0279},{"city":"Galt","lat":38.2698,"lng":-121.3004},{"city":"Lafayette","lat":37.8919,"lng":-122.1189},{"city":"Ottumwa","lat":41.0195,"lng":-92.4186},{"city":"Derby","lat":37.5571,"lng":-97.2551},{"city":"Silver Springs Shores","lat":29.1126,"lng":-82.0149},{"city":"Staunton","lat":38.1593,"lng":-79.0611},{"city":"Florence","lat":33.059,"lng":-111.4209},{"city":"Moscow","lat":46.7308,"lng":-116.9986},{"city":"Salem","lat":37.2864,"lng":-80.0555},{"city":"Fairland","lat":39.0803,"lng":-76.9527},{"city":"Newport","lat":41.4801,"lng":-71.3203},{"city":"Barberton","lat":41.0095,"lng":-81.6037},{"city":"Peekskill","lat":41.2884,"lng":-73.9227},{"city":"Caledonia","lat":42.7986,"lng":-87.8762},{"city":"Pooler","lat":32.1043,"lng":-81.2569},{"city":"Cave Spring","lat":37.2254,"lng":-80.0072},{"city":"Hastings","lat":40.5961,"lng":-98.39},{"city":"Edwardsville","lat":38.7922,"lng":-89.9874},{"city":"De Pere","lat":44.4308,"lng":-88.0785},{"city":"Seal Beach","lat":33.7542,"lng":-118.0714},{"city":"Athens","lat":34.7843,"lng":-86.9503},{"city":"Jenks","lat":35.9981,"lng":-95.9736},{"city":"Bayonet Point","lat":28.3254,"lng":-82.6834},{"city":"Belvidere","lat":42.2543,"lng":-88.8649},{"city":"Okemos","lat":42.7057,"lng":-84.4135},{"city":"Watertown","lat":43.9734,"lng":-75.9094},{"city":"Reedley","lat":36.5988,"lng":-119.4471},{"city":"Walker","lat":42.9853,"lng":-85.7446},{"city":"Tarpon Springs","lat":28.1493,"lng":-82.7623},{"city":"Barstow","lat":34.8661,"lng":-117.0471},{"city":"Franklin","lat":39.4948,"lng":-86.0544},{"city":"Newberg","lat":45.3075,"lng":-122.9601},{"city":"Soledad","lat":36.4432,"lng":-121.3426},{"city":"Carteret","lat":40.5849,"lng":-74.2284},{"city":"Sandusky","lat":41.4468,"lng":-82.7024},{"city":"Arnold","lat":39.0437,"lng":-76.4974},{"city":"Bloomingdale","lat":27.8784,"lng":-82.2624},{"city":"Norton Shores","lat":43.1621,"lng":-86.2519},{"city":"University Park","lat":32.8506,"lng":-96.7937},{"city":"Trussville","lat":33.6405,"lng":-86.5815},{"city":"Avon Lake","lat":41.4944,"lng":-82.0159},{"city":"Edgewood","lat":39.419,"lng":-76.2964},{"city":"Morton Grove","lat":42.0423,"lng":-87.789},{"city":"Bay Point","lat":38.0329,"lng":-121.9615},{"city":"Wyandotte","lat":42.2113,"lng":-83.1558},{"city":"Muskego","lat":42.886,"lng":-88.1291},{"city":"Romulus","lat":42.2237,"lng":-83.366},{"city":"South Bradenton","lat":27.4612,"lng":-82.5822},{"city":"Norfolk","lat":42.0324,"lng":-97.4217},{"city":"Northdale","lat":28.1058,"lng":-82.5263},{"city":"Marysville","lat":40.2279,"lng":-83.3595},{"city":"Brandon","lat":32.2778,"lng":-89.9896},{"city":"Venice","lat":27.1184,"lng":-82.4137},{"city":"Tumwater","lat":46.9891,"lng":-122.9175},{"city":"Dickinson","lat":46.8918,"lng":-102.7925},{"city":"Sebastian","lat":27.7822,"lng":-80.4819},{"city":"Ardmore","lat":34.1949,"lng":-97.1256},{"city":"Somerset","lat":40.5083,"lng":-74.501},{"city":"Fort Dodge","lat":42.5098,"lng":-94.1751},{"city":"Mequon","lat":43.2352,"lng":-87.9839},{"city":"Wright","lat":30.4445,"lng":-86.6419},{"city":"San Benito","lat":26.1298,"lng":-97.644},{"city":"Zanesville","lat":39.9565,"lng":-82.0132},{"city":"Apollo Beach","lat":27.7618,"lng":-82.4003},{"city":"Fort Hood","lat":31.1357,"lng":-97.7834},{"city":"Moses Lake","lat":47.1279,"lng":-119.2759},{"city":"Dix Hills","lat":40.8033,"lng":-73.3375},{"city":"Riverbank","lat":37.726,"lng":-120.9433},{"city":"Loma Linda","lat":34.045,"lng":-117.2498},{"city":"Medford","lat":40.822,"lng":-72.9859},{"city":"Port St. John","lat":28.4757,"lng":-80.8104},{"city":"West Memphis","lat":35.153,"lng":-90.1996},{"city":"Homer Glen","lat":41.6043,"lng":-87.9497},{"city":"Zion","lat":42.4603,"lng":-87.8511},{"city":"Socastee","lat":33.6871,"lng":-79.0086},{"city":"Clinton","lat":41.8435,"lng":-90.2412},{"city":"Carolina Forest","lat":33.7651,"lng":-78.913},{"city":"Perrysburg","lat":41.5377,"lng":-83.6413},{"city":"Westmont","lat":41.7948,"lng":-87.9742},{"city":"Collinsville","lat":38.677,"lng":-90.0063},{"city":"Greenbelt","lat":38.9953,"lng":-76.8885},{"city":"Sugar Hill","lat":34.108,"lng":-84.0558},{"city":"Corsicana","lat":32.0824,"lng":-96.4665},{"city":"Starkville","lat":33.4608,"lng":-88.8297},{"city":"Herndon","lat":38.9699,"lng":-77.3867},{"city":"North Lynnwood","lat":47.8533,"lng":-122.2762},{"city":"Bainbridge Island","lat":47.6439,"lng":-122.5434},{"city":"Selma","lat":36.5715,"lng":-119.6143},{"city":"Avon","lat":41.4485,"lng":-82.0187},{"city":"White Bear Lake","lat":45.0656,"lng":-93.015},{"city":"Elmwood Park","lat":41.9225,"lng":-87.8163},{"city":"Landover","lat":38.9241,"lng":-76.8875},{"city":"Athens","lat":39.327,"lng":-82.0987},{"city":"Bailey's Crossroads","lat":38.8477,"lng":-77.1305},{"city":"Ponca City","lat":36.7235,"lng":-97.0677},{"city":"Riverside","lat":39.7835,"lng":-84.1219},{"city":"Fish Hawk","lat":27.8511,"lng":-82.2164},{"city":"North Potomac","lat":39.0955,"lng":-77.2373},{"city":"Paris","lat":33.6688,"lng":-95.546},{"city":"Dinuba","lat":36.5453,"lng":-119.3987},{"city":"Rosemont","lat":38.5478,"lng":-121.3553},{"city":"Decatur","lat":33.7711,"lng":-84.2963},{"city":"Ridgeland","lat":32.4236,"lng":-90.1481},{"city":"Palmetto Bay","lat":25.6219,"lng":-80.3221},{"city":"Denison","lat":33.7672,"lng":-96.5808},{"city":"Faribault","lat":44.2996,"lng":-93.2789},{"city":"Rolling Meadows","lat":42.0747,"lng":-88.0252},{"city":"Centerville","lat":39.6339,"lng":-84.1449},{"city":"Oak Harbor","lat":48.2964,"lng":-122.6333},{"city":"Kalispell","lat":48.2153,"lng":-114.3274},{"city":"South Plainfield","lat":40.5748,"lng":-74.4152},{"city":"Benbrook","lat":32.6788,"lng":-97.4637},{"city":"North Laurel","lat":39.1285,"lng":-76.8476},{"city":"Emporia","lat":38.4028,"lng":-96.1932},{"city":"Auburn Hills","lat":42.6735,"lng":-83.2448},{"city":"Westchase","lat":28.0597,"lng":-82.611},{"city":"Burlington","lat":40.8071,"lng":-91.1247},{"city":"Pelham","lat":33.3114,"lng":-86.7573},{"city":"Elkridge","lat":39.1941,"lng":-76.7428},{"city":"Freeport","lat":42.2891,"lng":-89.6346},{"city":"San Fernando","lat":34.2886,"lng":-118.4362},{"city":"Kerrville","lat":30.0398,"lng":-99.132},{"city":"Solon","lat":41.3865,"lng":-81.44},{"city":"Fort Mill","lat":35.0061,"lng":-80.9389},{"city":"Wekiwa Springs","lat":28.6984,"lng":-81.4251},{"city":"North Augusta","lat":33.5214,"lng":-81.9547},{"city":"Willowbrook","lat":33.9209,"lng":-118.2356},{"city":"Allendale","lat":42.9845,"lng":-85.9499},{"city":"Farmington","lat":40.9845,"lng":-111.9065},{"city":"Lisle","lat":41.7918,"lng":-88.0888},{"city":"Fairfax","lat":38.8531,"lng":-77.2997},{"city":"Kingston","lat":41.9295,"lng":-73.9968},{"city":"Columbus","lat":41.4366,"lng":-97.3565},{"city":"Fresno","lat":29.5357,"lng":-95.4696},{"city":"Champlin","lat":45.1702,"lng":-93.3903},{"city":"Papillion","lat":41.1511,"lng":-96.0665},{"city":"Columbus","lat":33.5088,"lng":-88.4096},{"city":"King of Prussia","lat":40.0963,"lng":-75.3821},{"city":"Belton","lat":38.8192,"lng":-94.5335},{"city":"Lutz","lat":28.1396,"lng":-82.4467},{"city":"Webster Groves","lat":38.5866,"lng":-90.3544},{"city":"Cockeysville","lat":39.4804,"lng":-76.6294},{"city":"Auburn","lat":44.0851,"lng":-70.2492},{"city":"Wadsworth","lat":41.0279,"lng":-81.7323},{"city":"Mandan","lat":46.829,"lng":-100.887},{"city":"Kuna","lat":43.488,"lng":-116.3933},{"city":"Muscatine","lat":41.4195,"lng":-91.068},{"city":"Willoughby","lat":41.6459,"lng":-81.4084},{"city":"South Elgin","lat":41.9906,"lng":-88.3135},{"city":"Munster","lat":41.5468,"lng":-87.504},{"city":"Yukon","lat":35.5201,"lng":-97.7639},{"city":"Highland","lat":41.5483,"lng":-87.4588},{"city":"Saginaw","lat":32.8657,"lng":-97.3654},{"city":"Watauga","lat":32.8719,"lng":-97.2515},{"city":"Ashland","lat":37.6942,"lng":-122.1159},{"city":"Fountain Hills","lat":33.6073,"lng":-111.7398},{"city":"Chantilly","lat":38.8868,"lng":-77.4453},{"city":"West Springfield","lat":38.7771,"lng":-77.2268},{"city":"Kenmore","lat":47.7516,"lng":-122.2489},{"city":"Copiague","lat":40.6707,"lng":-73.3922},{"city":"Roseburg","lat":43.2231,"lng":-123.352},{"city":"Maywood","lat":41.8798,"lng":-87.8442},{"city":"North Platte","lat":41.1263,"lng":-100.7641},{"city":"Cata\u00f1o","lat":18.4375,"lng":-66.144},{"city":"Pace","lat":30.6188,"lng":-87.1667},{"city":"Vega Baja","lat":18.4406,"lng":-66.3997},{"city":"Patterson","lat":37.4758,"lng":-121.1536},{"city":"Maple Heights","lat":41.4094,"lng":-81.5625},{"city":"Rock Springs","lat":41.5947,"lng":-109.2209},{"city":"Jacksonville Beach","lat":30.2782,"lng":-81.4045},{"city":"Happy Valley","lat":45.4358,"lng":-122.5081},{"city":"Waukee","lat":41.5985,"lng":-93.8869},{"city":"Brookings","lat":44.3022,"lng":-96.7859},{"city":"Johnston","lat":41.691,"lng":-93.7234},{"city":"Calabasas","lat":34.1375,"lng":-118.6689},{"city":"Farragut","lat":35.8731,"lng":-84.1821},{"city":"Taylors","lat":34.9157,"lng":-82.3124},{"city":"Jasmine Estates","lat":28.293,"lng":-82.6907},{"city":"Waverly","lat":42.7401,"lng":-84.6354},{"city":"Linda","lat":39.1241,"lng":-121.5421},{"city":"Griffin","lat":33.2418,"lng":-84.2748},{"city":"New Brighton","lat":45.0658,"lng":-93.206},{"city":"Farmington","lat":44.6572,"lng":-93.1687},{"city":"Kapolei","lat":21.3399,"lng":-158.0677},{"city":"Loves Park","lat":42.3364,"lng":-88.9975},{"city":"Van Buren","lat":35.4483,"lng":-94.3528},{"city":"Clinton","lat":41.1395,"lng":-112.0656},{"city":"Simpsonville","lat":34.7287,"lng":-82.2569},{"city":"Christiansburg","lat":37.1406,"lng":-80.4036},{"city":"Allison Park","lat":40.573,"lng":-79.9603},{"city":"Trotwood","lat":39.7926,"lng":-84.3165},{"city":"Crystal","lat":45.0377,"lng":-93.3599},{"city":"Mountain House","lat":37.7673,"lng":-121.5449},{"city":"Laguna Beach","lat":33.5455,"lng":-117.7613},{"city":"Ballenger Creek","lat":39.3807,"lng":-77.4206},{"city":"Eastmont","lat":47.8968,"lng":-122.1818},{"city":"Garden City","lat":40.7266,"lng":-73.6447},{"city":"Millbrae","lat":37.5994,"lng":-122.4023},{"city":"Searcy","lat":35.2418,"lng":-91.7351},{"city":"Lexington","lat":33.989,"lng":-81.2202},{"city":"Gardner","lat":38.8122,"lng":-94.9275},{"city":"Union Hill-Novelty Hill","lat":47.6788,"lng":-122.0284},{"city":"Junction City","lat":39.0277,"lng":-96.8508},{"city":"Watertown","lat":43.1893,"lng":-88.7285},{"city":"Greenfield","lat":39.7937,"lng":-85.7738},{"city":"Hopewell","lat":37.2915,"lng":-77.2985},{"city":"Oakdale","lat":37.7618,"lng":-120.8468},{"city":"Shelbyville","lat":35.4987,"lng":-86.4517},{"city":"Cudahy","lat":33.9631,"lng":-118.183},